$GPGSA,A,3,01,02,03,04,05,06,07,08,09,10,11,12,1.2,1.0,0.6*35
$GPGSV,3,1,12,01,45,045,50,02,45,045,50,03,45,045,50,04,45,045,50*7c
$GPGSV,3,2,12,05,45,045,50,06,45,045,50,07,45,045,50,08,45,045,50*77
$GPGSV,3,3,12,09,45,045,50,10,45,045,50,11,45,045,50,12,45,045,50*71
$GPRMC,155057.00,A,4910.9003,N,1641.5212,E,24.8,355.4,181020,0.0,E,A*35
$GPVTG,355.4,T,0.0,M,24.8,N,45.9,K*4f
$GPGGA,155057.00,4910.9003,N,01641.5212,E,12,12,1.0,279.4,M,0.0,M,0.0,0000*49
$GPGSA,A,3,01,02,03,04,05,06,07,08,09,10,11,12,1.2,1.0,0.6*35
$GPGSV,3,1,12,01,45,045,50,02,45,045,50,03,45,045,50,04,45,045,50*7c
$GPGSV,3,2,12,05,45,045,50,06,45,045,50,07,45,045,50,08,45,045,50*77
$GPGSV,3,3,12,09,45,045,50,10,45,045,50,11,45,045,50,12,45,045,50*71
$GPRMC,155058.00,A,4910.9070,N,1641.5210,E,24.1,356.0,181020,0.0,E,A*32
$GPVTG,356.0,T,0.0,M,24.1,N,44.7,K*4e
$GPGGA,155058.00,4910.9070,N,01641.5210,E,12,12,1.0,279.9,M,0.0,M,0.0,0000*4d
$GPGSA,A,3,01,02,03,04,05,06,07,08,09,10,11,12,1.2,1.0,0.6*35
$GPGSV,3,1,12,01,45,045,50,02,45,045,50,03,45,045,50,04,45,045,50*7c
$GPGSV,3,2,12,05,45,045,50,06,45,045,50,07,45,045,50,08,45,045,50*77
$GPGSV,3,3,12,09,45,045,50,10,45,045,50,11,45,045,50,12,45,045,50*71
$GPRMC,155059.00,A,4910.9133,N,1641.5201,E,22.8,355.2,181020,0.0,E,A*3b
$GPVTG,355.2,T,0.0,M,22.8,N,42.3,K*42
$GPGGA,155059.00,4910.9133,N,01641.5201,E,12,12,1.0,280.7,M,0.0,M,0.0,0000*42
$GPGSA,A,3,01,02,03,04,05,06,07,08,09,10,11,12,1.2,1.0,0.6*35
$GPGSV,3,1,12,01,45,045,50,02,45,045,50,03,45,045,50,04,45,045,50*7c
$GPGSV,3,2,12,05,45,045,50,06,45,045,50,07,45,045,50,08,45,045,50*77
$GPGSV,3,3,12,09,45,045,50,10,45,045,50,11,45,045,50,12,45,045,50*71
$GPRMC,155100.00,A,4910.9189,N,1641.5199,E,20.8,356.1,181020,0.0,E,A*37
$GPVTG,356.1,T,0.0,M,20.8,N,38.5,K*4b
$GPGGA,155100.00,4910.9189,N,01641.5199,E,12,12,1.0,280.8,M,0.0,M,0.0,0000*43
$GPGSA,A,3,01,02,03,04,05,06,07,08,09,10,11,12,1.2,1.0,0.6*35
$GPGSV,3,1,12,01,45,045,50,02,45,045,50,03,45,045,50,04,45,045,50*7c
$GPGSV,3,2,12,05,45,045,50,06,45,045,50,07,45,045,50,08,45,045,50*77
$GPGSV,3,3,12,09,45,045,50,10,45,045,50,11,45,045,50,12,45,045,50*71
$GPRMC,155101.00,A,4910.9237,N,1641.5204,E,17.1,359.5,181020,0.0,E,A*31
$GPVTG,359.5,T,0.0,M,17.1,N,31.7,K*46
$GPGGA,155101.00,4910.9237,N,01641.5204,E,12,12,1.0,281.0,M,0.0,M,0.0,0000*4a
$GPGSA,A,3,01,02,03,04,05,06,07,08,09,10,11,12,1.2,1.0,0.6*35
$GPGSV,3,1,12,01,45,045,50,02,45,045,50,03,45,045,50,04,45,045,50*7c
$GPGSV,3,2,12,05,45,045,50,06,45,045,50,07,45,045,50,08,45,045,50*77
$GPGSV,3,3,12,09,45,045,50,10,45,045,50,11,45,045,50,12,45,045,50*71
$GPRMC,155102.00,A,4910.9268,N,1641.5211,E,11.2,3.2,181020,0.0,E,A*32
$GPVTG,3.2,T,0.0,M,11.2,N,20.8,K*47
$GPGGA,155102.00,4910.9268,N,01641.5211,E,12,12,1.0,281.1,M,0.0,M,0.0,0000*46
$GPGSA,A,3,01,02,03,04,05,06,07,08,09,10,11,12,1.2,1.0,0.6*35
$GPGSV,3,1,12,01,45,045,50,02,45,045,50,03,45,045,50,04,45,045,50*7c
$GPGSV,3,2,12,05,45,045,50,06,45,045,50,07,45,045,50,08,45,045,50*77
$GPGSV,3,3,12,09,45,045,50,10,45,045,50,11,45,045,50,12,45,045,50*71
$GPRMC,155103.00,A,4910.9296,N,1641.5226,E,10.5,9.7,181020,0.0,E,A*3f
$GPVTG,9.7,T,0.0,M,10.5,N,19.5,K*49
$GPGGA,155103.00,4910.9296,N,01641.5226,E,12,12,1.0,281.7,M,0.0,M,0.0,0000*44
$GPGSA,A,3,01,02,03,04,05,06,07,08,09,10,11,12,1.2,1.0,0.6*35
$GPGSV,3,1,12,01,45,045,50,02,45,045,50,03,45,045,50,04,45,045,50*7c
$GPGSV,3,2,12,05,45,045,50,06,45,045,50,07,45,045,50,08,45,045,50*77
$GPGSV,3,3,12,09,45,045,50,10,45,045,50,11,45,045,50,12,45,045,50*71
$GPRMC,155104.00,A,4910.9329,N,1641.5250,E,12.6,16.1,181020,0.0,E,A*05
$GPVTG,16.1,T,0.0,M,12.6,N,23.3,K*7f
$GPGGA,155104.00,4910.9329,N,01641.5250,E,12,12,1.0,281.7,M,0.0,M,0.0,0000*47
$GPGSA,A,3,01,02,03,04,05,06,07,08,09,10,11,12,1.2,1.0,0.6*35
$GPGSV,3,1,12,01,45,045,50,02,45,045,50,03,45,045,50,04,45,045,50*7c
$GPGSV,3,2,12,05,45,045,50,06,45,045,50,07,45,045,50,08,45,045,50*77
$GPGSV,3,3,12,09,45,045,50,10,45,045,50,11,45,045,50,12,45,045,50*71
$GPRMC,155105.00,A,4910.9368,N,1641.5257,E,13.0,4.3,181020,0.0,E,A*30
$GPVTG,4.3,T,0.0,M,13.0,N,24.1,K*4c
$GPGGA,155105.00,4910.9368,N,01641.5257,E,12,12,1.0,281.8,M,0.0,M,0.0,0000*4b
$GPGSA,A,3,01,02,03,04,05,06,07,08,09,10,11,12,1.2,1.0,0.6*35
$GPGSV,3,1,12,01,45,045,50,02,45,045,50,03,45,045,50,04,45,045,50*7c
$GPGSV,3,2,12,05,45,045,50,06,45,045,50,07,45,045,50,08,45,045,50*77
$GPGSV,3,3,12,09,45,045,50,10,45,045,50,11,45,045,50,12,45,045,50*71
$GPRMC,155106.00,A,4910.9406,N,1641.5242,E,14.6,346.6,181020,0.0,E,A*39
$GPVTG,346.6,T,0.0,M,14.6,N,27.0,K*4f
$GPGGA,155106.00,4910.9406,N,01641.5242,E,12,12,1.0,281.9,M,0.0,M,0.0,0000*42
$GPGSA,A,3,01,02,03,04,05,06,07,08,09,10,11,12,1.2,1.0,0.6*35
$GPGSV,3,1,12,01,45,045,50,02,45,045,50,03,45,045,50,04,45,045,50*7c
$GPGSV,3,2,12,05,45,045,50,06,45,045,50,07,45,045,50,08,45,045,50*77
$GPGSV,3,3,12,09,45,045,50,10,45,045,50,11,45,045,50,12,45,045,50*71
$GPRMC,155107.00,A,4910.9453,N,1641.5213,E,18.1,341.3,181020,0.0,E,A*35
$GPVTG,341.3,T,0.0,M,18.1,N,33.5,K*46
$GPGGA,155107.00,4910.9453,N,01641.5213,E,12,12,1.0,282.2,M,0.0,M,0.0,0000*4f
$GPGSA,A,3,01,02,03,04,05,06,07,08,09,10,11,12,1.2,1.0,0.6*35
$GPGSV,3,1,12,01,45,045,50,02,45,045,50,03,45,045,50,04,45,045,50*7c
$GPGSV,3,2,12,05,45,045,50,06,45,045,50,07,45,045,50,08,45,045,50*77
$GPGSV,3,3,12,09,45,045,50,10,45,045,50,11,45,045,50,12,45,045,50*71
$GPRMC,155108.00,A,4910.9507,N,1641.5185,E,20.8,343.1,181020,0.0,E,A*34
$GPVTG,343.1,T,0.0,M,20.8,N,38.6,K*4c
$GPGGA,155108.00,4910.9507,N,01641.5185,E,12,12,1.0,282.7,M,0.0,M,0.0,0000*49
$GPGSA,A,3,01,02,03,04,05,06,07,08,09,10,11,12,1.2,1.0,0.6*35
$GPGSV,3,1,12,01,45,045,50,02,45,045,50,03,45,045,50,04,45,045,50*7c
$GPGSV,3,2,12,05,45,045,50,06,45,045,50,07,45,045,50,08,45,045,50*77
$GPGSV,3,3,12,09,45,045,50,10,45,045,50,11,45,045,50,12,45,045,50*71
$GPRMC,155109.00,A,4910.9576,N,1641.5169,E,24.9,351.3,181020,0.0,E,A*35
$GPVTG,351.3,T,0.0,M,24.9,N,46.1,K*46
$GPGGA,155109.00,4910.9576,N,01641.5169,E,12,12,1.0,283.2,M,0.0,M,0.0,0000*48
$GPGSA,A,3,01,02,03,04,05,06,07,08,09,10,11,12,1.2,1.0,0.6*35
$GPGSV,3,1,12,01,45,045,50,02,45,045,50,03,45,045,50,04,45,045,50*7c
$GPGSV,3,2,12,05,45,045,50,06,45,045,50,07,45,045,50,08,45,045,50*77
$GPGSV,3,3,12,09,45,045,50,10,45,045,50,11,45,045,50,12,45,045,50*71
$GPRMC,155110.00,A,4910.9656,N,1641.5155,E,28.8,354.1,181020,0.0,E,A*39
$GPVTG,354.1,T,0.0,M,28.8,N,53.4,K*4d
$GPGGA,155110.00,4910.9656,N,01641.5155,E,12,12,1.0,283.9,M,0.0,M,0.0,0000*45
$GPGSA,A,3,01,02,03,04,05,06,07,08,09,10,11,12,1.2,1.0,0.6*35
$GPGSV,3,1,12,01,45,045,50,02,45,045,50,03,45,045,50,04,45,045,50*7c
$GPGSV,3,2,12,05,45,045,50,06,45,045,50,07,45,045,50,08,45,045,50*77
$GPGSV,3,3,12,09,45,045,50,10,45,045,50,11,45,045,50,12,45,045,50*71
$GPRMC,155111.00,A,4910.9743,N,1641.5138,E,31.9,354.6,181020,0.0,E,A*38
$GPVTG,354.6,T,0.0,M,31.9,N,59.1,K*4c
$GPGGA,155111.00,4910.9743,N,01641.5138,E,12,12,1.0,284.9,M,0.0,M,0.0,0000*4d
$GPGSA,A,3,01,02,03,04,05,06,07,08,09,10,11,12,1.2,1.0,0.6*35
$GPGSV,3,1,12,01,45,045,50,02,45,045,50,03,45,045,50,04,45,045,50*7c
$GPGSV,3,2,12,05,45,045,50,06,45,045,50,07,45,045,50,08,45,045,50*77
$GPGSV,3,3,12,09,45,045,50,10,45,045,50,11,45,045,50,12,45,045,50*71
$GPRMC,155112.00,A,4910.9838,N,1641.5124,E,33.3,356.2,181020,0.0,E,A*3b
$GPVTG,356.2,T,0.0,M,33.3,N,61.7,K*4f
$GPGGA,155112.00,4910.9838,N,01641.5124,E,12,12,1.0,285.6,M,0.0,M,0.0,0000*4e
$GPGSA,A,3,01,02,03,04,05,06,07,08,09,10,11,12,1.2,1.0,0.6*35
$GPGSV,3,1,12,01,45,045,50,02,45,045,50,03,45,045,50,04,45,045,50*7c
$GPGSV,3,2,12,05,45,045,50,06,45,045,50,07,45,045,50,08,45,045,50*77
$GPGSV,3,3,12,09,45,045,50,10,45,045,50,11,45,045,50,12,45,045,50*71
$GPRMC,155113.00,A,4910.9930,N,1641.5114,E,33.6,357.6,181020,0.0,E,A*30
$GPVTG,357.6,T,0.0,M,33.6,N,62.2,K*49
$GPGGA,155113.00,4910.9930,N,01641.5114,E,12,12,1.0,286.4,M,0.0,M,0.0,0000*44
$GPGSA,A,3,01,02,03,04,05,06,07,08,09,10,11,12,1.2,1.0,0.6*35
$GPGSV,3,1,12,01,45,045,50,02,45,045,50,03,45,045,50,04,45,045,50*7c
$GPGSV,3,2,12,05,45,045,50,06,45,045,50,07,45,045,50,08,45,045,50*77
$GPGSV,3,3,12,09,45,045,50,10,45,045,50,11,45,045,50,12,45,045,50*71
$GPRMC,155114.00,A,4911.0022,N,1641.5110,E,33.9,359.3,181020,0.0,E,A*35
$GPVTG,359.3,T,0.0,M,33.9,N,62.8,K*47
$GPGGA,155114.00,4911.0022,N,01641.5110,E,12,12,1.0,287.1,M,0.0,M,0.0,0000*41
$GPGSA,A,3,01,02,03,04,05,06,07,08,09,10,11,12,1.2,1.0,0.6*35
$GPGSV,3,1,12,01,45,045,50,02,45,045,50,03,45,045,50,04,45,045,50*7c
$GPGSV,3,2,12,05,45,045,50,06,45,045,50,07,45,045,50,08,45,045,50*77
$GPGSV,3,3,12,09,45,045,50,10,45,045,50,11,45,045,50,12,45,045,50*71
$GPRMC,155115.00,A,4911.0113,N,1641.5113,E,33.8,1.5,181020,0.0,E,A*3d
$GPVTG,1.5,T,0.0,M,33.8,N,62.7,K*41
$GPGGA,155115.00,4911.0113,N,01641.5113,E,12,12,1.0,287.8,M,0.0,M,0.0,0000*49
$GPGSA,A,3,01,02,03,04,05,06,07,08,09,10,11,12,1.2,1.0,0.6*35
$GPGSV,3,1,12,01,45,045,50,02,45,045,50,03,45,045,50,04,45,045,50*7c
$GPGSV,3,2,12,05,45,045,50,06,45,045,50,07,45,045,50,08,45,045,50*77
$GPGSV,3,3,12,09,45,045,50,10,45,045,50,11,45,045,50,12,45,045,50*71
$GPRMC,155116.00,A,4911.0206,N,1641.5122,E,34.4,3.6,181020,0.0,E,A*31
$GPVTG,3.6,T,0.0,M,34.4,N,63.6,K*4b
$GPGGA,155116.00,4911.0206,N,01641.5122,E,12,12,1.0,288.5,M,0.0,M,0.0,0000*4d
$GPGSA,A,3,01,02,03,04,05,06,07,08,09,10,11,12,1.2,1.0,0.6*35
$GPGSV,3,1,12,01,45,045,50,02,45,045,50,03,45,045,50,04,45,045,50*7c
$GPGSV,3,2,12,05,45,045,50,06,45,045,50,07,45,045,50,08,45,045,50*77
$GPGSV,3,3,12,09,45,045,50,10,45,045,50,11,45,045,50,12,45,045,50*71
$GPRMC,155117.00,A,4911.0301,N,1641.5132,E,35.0,4.8,181020,0.0,E,A*3b
$GPVTG,4.8,T,0.0,M,35.0,N,64.9,K*4f
$GPGGA,155117.00,4911.0301,N,01641.5132,E,12,12,1.0,289.3,M,0.0,M,0.0,0000*4c
$GPGSA,A,3,01,02,03,04,05,06,07,08,09,10,11,12,1.2,1.0,0.6*35
$GPGSV,3,1,12,01,45,045,50,02,45,045,50,03,45,045,50,04,45,045,50*7c
$GPGSV,3,2,12,05,45,045,50,06,45,045,50,07,45,045,50,08,45,045,50*77
$GPGSV,3,3,12,09,45,045,50,10,45,045,50,11,45,045,50,12,45,045,50*71
$GPRMC,155118.00,A,4911.0397,N,1641.5152,E,35.0,7.4,181020,0.0,E,A*32
$GPVTG,7.4,T,0.0,M,35.0,N,64.8,K*41
$GPGGA,155118.00,4911.0397,N,01641.5152,E,12,12,1.0,289.9,M,0.0,M,0.0,0000*40
$GPGSA,A,3,01,02,03,04,05,06,07,08,09,10,11,12,1.2,1.0,0.6*35
$GPGSV,3,1,12,01,45,045,50,02,45,045,50,03,45,045,50,04,45,045,50*7c
$GPGSV,3,2,12,05,45,045,50,06,45,045,50,07,45,045,50,08,45,045,50*77
$GPGSV,3,3,12,09,45,045,50,10,45,045,50,11,45,045,50,12,45,045,50*71
$GPRMC,155119.00,A,4911.0490,N,1641.5176,E,33.9,8.9,181020,0.0,E,A*38
$GPVTG,8.9,T,0.0,M,33.9,N,62.7,K*45
$GPGGA,155119.00,4911.0490,N,01641.5176,E,12,12,1.0,289.9,M,0.0,M,0.0,0000*47
$GPGSA,A,3,01,02,03,04,05,06,07,08,09,10,11,12,1.2,1.0,0.6*35
$GPGSV,3,1,12,01,45,045,50,02,45,045,50,03,45,045,50,04,45,045,50*7c
$GPGSV,3,2,12,05,45,045,50,06,45,045,50,07,45,045,50,08,45,045,50*77
$GPGSV,3,3,12,09,45,045,50,10,45,045,50,11,45,045,50,12,45,045,50*71
$GPRMC,155120.00,A,4911.0578,N,1641.5205,E,31.6,9.8,181020,0.0,E,A*3f
$GPVTG,9.8,T,0.0,M,31.6,N,58.5,K*43
$GPGGA,155120.00,4911.0578,N,01641.5205,E,12,12,1.0,289.4,M,0.0,M,0.0,0000*40
$GPGSA,A,3,01,02,03,04,05,06,07,08,09,10,11,12,1.2,1.0,0.6*35
$GPGSV,3,1,12,01,45,045,50,02,45,045,50,03,45,045,50,04,45,045,50*7c
$GPGSV,3,2,12,05,45,045,50,06,45,045,50,07,45,045,50,08,45,045,50*77
$GPGSV,3,3,12,09,45,045,50,10,45,045,50,11,45,045,50,12,45,045,50*71
$GPRMC,155121.00,A,4911.0657,N,1641.5235,E,27.8,11.3,181020,0.0,E,A*08
$GPVTG,11.3,T,0.0,M,27.8,N,51.5,K*71
$GPGGA,155121.00,4911.0657,N,01641.5235,E,12,12,1.0,288.7,M,0.0,M,0.0,0000*4e
$GPGSA,A,3,01,02,03,04,05,06,07,08,09,10,11,12,1.2,1.0,0.6*35
$GPGSV,3,1,12,01,45,045,50,02,45,045,50,03,45,045,50,04,45,045,50*7c
$GPGSV,3,2,12,05,45,045,50,06,45,045,50,07,45,045,50,08,45,045,50*77
$GPGSV,3,3,12,09,45,045,50,10,45,045,50,11,45,045,50,12,45,045,50*71
$GPRMC,155122.00,A,4911.0724,N,1641.5255,E,23.8,8.0,181020,0.0,E,A*37
$GPVTG,8.0,T,0.0,M,23.8,N,44.0,K*4f
$GPGGA,155122.00,4911.0724,N,01641.5255,E,12,12,1.0,288.0,M,0.0,M,0.0,0000*49
$GPGSA,A,3,01,02,03,04,05,06,07,08,09,10,11,12,1.2,1.0,0.6*35
$GPGSV,3,1,12,01,45,045,50,02,45,045,50,03,45,045,50,04,45,045,50*7c
$GPGSV,3,2,12,05,45,045,50,06,45,045,50,07,45,045,50,08,45,045,50*77
$GPGSV,3,3,12,09,45,045,50,10,45,045,50,11,45,045,50,12,45,045,50*71
$GPRMC,155123.00,A,4911.0786,N,1641.5247,E,22.1,351.8,181020,0.0,E,A*32
$GPVTG,351.8,T,0.0,M,22.1,N,40.8,K*4c
$GPGGA,155123.00,4911.0786,N,01641.5247,E,12,12,1.0,287.6,M,0.0,M,0.0,0000*4a
$GPGSA,A,3,01,02,03,04,05,06,07,08,09,10,11,12,1.2,1.0,0.6*35
$GPGSV,3,1,12,01,45,045,50,02,45,045,50,03,45,045,50,04,45,045,50*7c
$GPGSV,3,2,12,05,45,045,50,06,45,045,50,07,45,045,50,08,45,045,50*77
$GPGSV,3,3,12,09,45,045,50,10,45,045,50,11,45,045,50,12,45,045,50*71
$GPRMC,155124.00,A,4911.0835,N,1641.5203,E,20.9,329.1,181020,0.0,E,A*3e
$GPVTG,329.1,T,0.0,M,20.9,N,38.7,K*40
$GPGGA,155124.00,4911.0835,N,01641.5203,E,12,12,1.0,287.9,M,0.0,M,0.0,0000*45
$GPGSA,A,3,01,02,03,04,05,06,07,08,09,10,11,12,1.2,1.0,0.6*35
$GPGSV,3,1,12,01,45,045,50,02,45,045,50,03,45,045,50,04,45,045,50*7c
$GPGSV,3,2,12,05,45,045,50,06,45,045,50,07,45,045,50,08,45,045,50*77
$GPGSV,3,3,12,09,45,045,50,10,45,045,50,11,45,045,50,12,45,045,50*71
$GPRMC,155125.00,A,4911.0866,N,1641.5122,E,21.9,299.1,181020,0.0,E,A*32
$GPVTG,299.1,T,0.0,M,21.9,N,40.5,K*46
$GPGGA,155125.00,4911.0866,N,01641.5122,E,12,12,1.0,288.1,M,0.0,M,0.0,0000*45
$GPGSA,A,3,01,02,03,04,05,06,07,08,09,10,11,12,1.2,1.0,0.6*35
$GPGSV,3,1,12,01,45,045,50,02,45,045,50,03,45,045,50,04,45,045,50*7c
$GPGSV,3,2,12,05,45,045,50,06,45,045,50,07,45,045,50,08,45,045,50*77
$GPGSV,3,3,12,09,45,045,50,10,45,045,50,11,45,045,50,12,45,045,50*71
$GPRMC,155126.00,A,4911.0864,N,1641.5014,E,24.5,272.5,181020,0.0,E,A*3f
$GPVTG,272.5,T,0.0,M,24.5,N,45.3,K*4d
$GPGGA,155126.00,4911.0864,N,01641.5014,E,12,12,1.0,288.4,M,0.0,M,0.0,0000*45
$GPGSA,A,3,01,02,03,04,05,06,07,08,09,10,11,12,1.2,1.0,0.6*35
$GPGSV,3,1,12,01,45,045,50,02,45,045,50,03,45,045,50,04,45,045,50*7c
$GPGSV,3,2,12,05,45,045,50,06,45,045,50,07,45,045,50,08,45,045,50*77
$GPGSV,3,3,12,09,45,045,50,10,45,045,50,11,45,045,50,12,45,045,50*71
$GPRMC,155127.00,A,4911.0854,N,1641.4892,E,28.6,266.1,181020,0.0,E,A*34
$GPVTG,266.1,T,0.0,M,28.6,N,52.9,K*4f
$GPGGA,155127.00,4911.0854,N,01641.4892,E,12,12,1.0,288.5,M,0.0,M,0.0,0000*41
$GPGSA,A,3,01,02,03,04,05,06,07,08,09,10,11,12,1.2,1.0,0.6*35
$GPGSV,3,1,12,01,45,045,50,02,45,045,50,03,45,045,50,04,45,045,50*7c
$GPGSV,3,2,12,05,45,045,50,06,45,045,50,07,45,045,50,08,45,045,50*77
$GPGSV,3,3,12,09,45,045,50,10,45,045,50,11,45,045,50,12,45,045,50*71
$GPRMC,155128.00,A,4911.0844,N,1641.4747,E,33.1,265.9,181020,0.0,E,A*3b
$GPVTG,265.9,T,0.0,M,33.1,N,61.3,K*43
$GPGGA,155128.00,4911.0844,N,01641.4747,E,12,12,1.0,288.5,M,0.0,M,0.0,0000*48
$GPGSA,A,3,01,02,03,04,05,06,07,08,09,10,11,12,1.2,1.0,0.6*35
$GPGSV,3,1,12,01,45,045,50,02,45,045,50,03,45,045,50,04,45,045,50*7c
$GPGSV,3,2,12,05,45,045,50,06,45,045,50,07,45,045,50,08,45,045,50*77
$GPGSV,3,3,12,09,45,045,50,10,45,045,50,11,45,045,50,12,45,045,50*71
$GPRMC,155129.00,A,4911.0834,N,1641.4583,E,36.6,265.9,181020,0.0,E,A*35
$GPVTG,265.9,T,0.0,M,36.6,N,67.8,K*4c
$GPGGA,155129.00,4911.0834,N,01641.4583,E,12,12,1.0,287.5,M,0.0,M,0.0,0000*4b
$GPGSA,A,3,01,02,03,04,05,06,07,08,09,10,11,12,1.2,1.0,0.6*35
$GPGSV,3,1,12,01,45,045,50,02,45,045,50,03,45,045,50,04,45,045,50*7c
$GPGSV,3,2,12,05,45,045,50,06,45,045,50,07,45,045,50,08,45,045,50*77
$GPGSV,3,3,12,09,45,045,50,10,45,045,50,11,45,045,50,12,45,045,50*71
$GPRMC,155130.00,A,4911.0821,N,1641.4416,E,38.1,264.9,181020,0.0,E,A*3c
$GPVTG,264.9,T,0.0,M,38.1,N,70.6,K*4c
$GPGGA,155130.00,4911.0821,N,01641.4416,E,12,12,1.0,286.6,M,0.0,M,0.0,0000*48
$GPGSA,A,3,01,02,03,04,05,06,07,08,09,10,11,12,1.2,1.0,0.6*35
$GPGSV,3,1,12,01,45,045,50,02,45,045,50,03,45,045,50,04,45,045,50*7c
$GPGSV,3,2,12,05,45,045,50,06,45,045,50,07,45,045,50,08,45,045,50*77
$GPGSV,3,3,12,09,45,045,50,10,45,045,50,11,45,045,50,12,45,045,50*71
$GPRMC,155131.00,A,4911.0803,N,1641.4237,E,41.5,262.4,181020,0.0,E,A*39
$GPVTG,262.4,T,0.0,M,41.5,N,76.9,K*44
$GPGGA,155131.00,4911.0803,N,01641.4237,E,12,12,1.0,286.5,M,0.0,M,0.0,0000*4f
$GPGSA,A,3,01,02,03,04,05,06,07,08,09,10,11,12,1.2,1.0,0.6*35
$GPGSV,3,1,12,01,45,045,50,02,45,045,50,03,45,045,50,04,45,045,50*7c
$GPGSV,3,2,12,05,45,045,50,06,45,045,50,07,45,045,50,08,45,045,50*77
$GPGSV,3,3,12,09,45,045,50,10,45,045,50,11,45,045,50,12,45,045,50*71
$GPRMC,155132.00,A,4911.0783,N,1641.4047,E,44.3,262.4,181020,0.0,E,A*3b
$GPVTG,262.4,T,0.0,M,44.3,N,82.0,K*45
$GPGGA,155132.00,4911.0783,N,01641.4047,E,12,12,1.0,286.0,M,0.0,M,0.0,0000*4b
$GPGSA,A,3,01,02,03,04,05,06,07,08,09,10,11,12,1.2,1.0,0.6*35
$GPGSV,3,1,12,01,45,045,50,02,45,045,50,03,45,045,50,04,45,045,50*7c
$GPGSV,3,2,12,05,45,045,50,06,45,045,50,07,45,045,50,08,45,045,50*77
$GPGSV,3,3,12,09,45,045,50,10,45,045,50,11,45,045,50,12,45,045,50*71
$GPRMC,155133.00,A,4911.0764,N,1641.3858,E,44.4,262.4,181020,0.0,E,A*35
$GPVTG,262.4,T,0.0,M,44.4,N,82.2,K*40
$GPGGA,155133.00,4911.0764,N,01641.3858,E,12,12,1.0,285.4,M,0.0,M,0.0,0000*45
$GPGSA,A,3,01,02,03,04,05,06,07,08,09,10,11,12,1.2,1.0,0.6*35
$GPGSV,3,1,12,01,45,045,50,02,45,045,50,03,45,045,50,04,45,045,50*7c
$GPGSV,3,2,12,05,45,045,50,06,45,045,50,07,45,045,50,08,45,045,50*77
$GPGSV,3,3,12,09,45,045,50,10,45,045,50,11,45,045,50,12,45,045,50*71
$GPRMC,155134.00,A,4911.0745,N,1641.3666,E,45.2,262.5,181020,0.0,E,A*34
$GPVTG,262.5,T,0.0,M,45.2,N,83.6,K*43
$GPGGA,155134.00,4911.0745,N,01641.3666,E,12,12,1.0,286.0,M,0.0,M,0.0,0000*45
$GPGSA,A,3,01,02,03,04,05,06,07,08,09,10,11,12,1.2,1.0,0.6*35
$GPGSV,3,1,12,01,45,045,50,02,45,045,50,03,45,045,50,04,45,045,50*7c
$GPGSV,3,2,12,05,45,045,50,06,45,045,50,07,45,045,50,08,45,045,50*77
$GPGSV,3,3,12,09,45,045,50,10,45,045,50,11,45,045,50,12,45,045,50*71
$GPRMC,155135.00,A,4911.0727,N,1641.3480,E,43.9,262.4,181020,0.0,E,A*37
$GPVTG,262.4,T,0.0,M,43.9,N,81.2,K*49
$GPGGA,155135.00,4911.0727,N,01641.3480,E,12,12,1.0,286.4,M,0.0,M,0.0,0000*4e
$GPGSA,A,3,01,02,03,04,05,06,07,08,09,10,11,12,1.2,1.0,0.6*35
$GPGSV,3,1,12,01,45,045,50,02,45,045,50,03,45,045,50,04,45,045,50*7c
$GPGSV,3,2,12,05,45,045,50,06,45,045,50,07,45,045,50,08,45,045,50*77
$GPGSV,3,3,12,09,45,045,50,10,45,045,50,11,45,045,50,12,45,045,50*71
$GPRMC,155136.00,A,4911.0713,N,1641.3294,E,43.6,263.3,181020,0.0,E,A*39
$GPVTG,263.3,T,0.0,M,43.6,N,80.7,K*44
$GPGGA,155136.00,4911.0713,N,01641.3294,E,12,12,1.0,286.9,M,0.0,M,0.0,0000*44
$GPGSA,A,3,01,02,03,04,05,06,07,08,09,10,11,12,1.2,1.0,0.6*35
$GPGSV,3,1,12,01,45,045,50,02,45,045,50,03,45,045,50,04,45,045,50*7c
$GPGSV,3,2,12,05,45,045,50,06,45,045,50,07,45,045,50,08,45,045,50*77
$GPGSV,3,3,12,09,45,045,50,10,45,045,50,11,45,045,50,12,45,045,50*71
$GPRMC,155137.00,A,4911.0707,N,1641.3106,E,43.9,266.7,181020,0.0,E,A*3b
$GPVTG,266.7,T,0.0,M,43.9,N,81.4,K*48
$GPGGA,155137.00,4911.0707,N,01641.3106,E,12,12,1.0,287.1,M,0.0,M,0.0,0000*41
$GPGSA,A,3,01,02,03,04,05,06,07,08,09,10,11,12,1.2,1.0,0.6*35
$GPGSV,3,1,12,01,45,045,50,02,45,045,50,03,45,045,50,04,45,045,50*7c
$GPGSV,3,2,12,05,45,045,50,06,45,045,50,07,45,045,50,08,45,045,50*77
$GPGSV,3,3,12,09,45,045,50,10,45,045,50,11,45,045,50,12,45,045,50*71
$GPRMC,155138.00,A,4911.0703,N,1641.2915,E,44.3,268.9,181020,0.0,E,A*36
$GPVTG,268.9,T,0.0,M,44.3,N,82.0,K*42
$GPGGA,155138.00,4911.0703,N,01641.2915,E,12,12,1.0,287.5,M,0.0,M,0.0,0000*45
$GPGSA,A,3,01,02,03,04,05,06,07,08,09,10,11,12,1.2,1.0,0.6*35
$GPGSV,3,1,12,01,45,045,50,02,45,045,50,03,45,045,50,04,45,045,50*7c
$GPGSV,3,2,12,05,45,045,50,06,45,045,50,07,45,045,50,08,45,045,50*77
$GPGSV,3,3,12,09,45,045,50,10,45,045,50,11,45,045,50,12,45,045,50*71
$GPRMC,155139.00,A,4911.0707,N,1641.2720,E,44.4,271.1,181020,0.0,E,A*3c
$GPVTG,271.1,T,0.0,M,44.4,N,82.2,K*47
$GPGGA,155139.00,4911.0707,N,01641.2720,E,12,12,1.0,287.6,M,0.0,M,0.0,0000*4b
$GPGSA,A,3,01,02,03,04,05,06,07,08,09,10,11,12,1.2,1.0,0.5*36
$GPGSV,3,1,12,01,45,045,50,02,45,045,50,03,45,045,50,04,45,045,50*7c
$GPGSV,3,2,12,05,45,045,50,06,45,045,50,07,45,045,50,08,45,045,50*77
$GPGSV,3,3,12,09,45,045,50,10,45,045,50,11,45,045,50,12,45,045,50*71
$GPRMC,155140.00,A,4911.0710,N,1641.2522,E,44.7,271.9,181020,0.0,E,A*3f
$GPVTG,271.9,T,0.0,M,44.7,N,82.7,K*49
$GPGGA,155140.00,4911.0710,N,01641.2522,E,12,12,1.0,287.7,M,0.0,M,0.0,0000*42
$GPGSA,A,3,01,02,03,04,05,06,07,08,09,10,11,12,1.2,1.0,0.5*36
$GPGSV,3,1,12,01,45,045,50,02,45,045,50,03,45,045,50,04,45,045,50*7c
$GPGSV,3,2,12,05,45,045,50,06,45,045,50,07,45,045,50,08,45,045,50*77
$GPGSV,3,3,12,09,45,045,50,10,45,045,50,11,45,045,50,12,45,045,50*71
$GPRMC,155141.00,A,4911.0712,N,1641.2323,E,45.0,271.8,181020,0.0,E,A*3c
$GPVTG,271.8,T,0.0,M,45.0,N,83.4,K*4c
$GPGGA,155141.00,4911.0712,N,01641.2323,E,12,12,1.0,288.4,M,0.0,M,0.0,0000*4a
$GPGSA,A,3,01,02,03,04,05,06,07,08,09,10,11,12,1.2,1.0,0.5*36
$GPGSV,3,1,12,01,45,045,50,02,45,045,50,03,45,045,50,04,45,045,50*7c
$GPGSV,3,2,12,05,45,045,50,06,45,045,50,07,45,045,50,08,45,045,50*77
$GPGSV,3,3,12,09,45,045,50,10,45,045,50,11,45,045,50,12,45,045,50*71
$GPRMC,155142.00,A,4911.0714,N,1641.2133,E,44.0,271.6,181020,0.0,E,A*35
$GPVTG,271.6,T,0.0,M,44.0,N,81.5,K*40
$GPGGA,155142.00,4911.0714,N,01641.2133,E,12,12,1.0,288.3,M,0.0,M,0.0,0000*4b
$GPGSA,A,3,01,02,03,04,05,06,07,08,09,10,11,12,1.2,1.0,0.5*36
$GPGSV,3,1,12,01,45,045,50,02,45,045,50,03,45,045,50,04,45,045,50*7c
$GPGSV,3,2,12,05,45,045,50,06,45,045,50,07,45,045,50,08,45,045,50*77
$GPGSV,3,3,12,09,45,045,50,10,45,045,50,11,45,045,50,12,45,045,50*71
$GPRMC,155143.00,A,4911.0714,N,1641.1940,E,44.3,271.3,181020,0.0,E,A*3d
$GPVTG,271.3,T,0.0,M,44.3,N,82.0,K*40
$GPGGA,155143.00,4911.0714,N,01641.1940,E,12,12,1.0,288.6,M,0.0,M,0.0,0000*40
$GPGSA,A,3,01,02,03,04,05,06,07,08,09,10,11,12,1.2,1.0,0.5*36
$GPGSV,3,1,12,01,45,045,50,02,45,045,50,03,45,045,50,04,45,045,50*7c
$GPGSV,3,2,12,05,45,045,50,06,45,045,50,07,45,045,50,08,45,045,50*77
$GPGSV,3,3,12,09,45,045,50,10,45,045,50,11,45,045,50,12,45,045,50*71
$GPRMC,155144.00,A,4911.0714,N,1641.1739,E,45.1,271.5,181020,0.0,E,A*3f
$GPVTG,271.5,T,0.0,M,45.1,N,83.6,K*42
$GPGGA,155144.00,4911.0714,N,01641.1739,E,12,12,1.0,288.9,M,0.0,M,0.0,0000*48
$GPGSA,A,3,01,02,03,04,05,06,07,08,09,10,11,12,1.2,1.0,0.5*36
$GPGSV,3,1,12,01,45,045,50,02,45,045,50,03,45,045,50,04,45,045,50*7c
$GPGSV,3,2,12,05,45,045,50,06,45,045,50,07,45,045,50,08,45,045,50*77
$GPGSV,3,3,12,09,45,045,50,10,45,045,50,11,45,045,50,12,45,045,50*71
$GPRMC,155145.00,A,4911.0716,N,1641.1540,E,45.6,272.0,181020,0.0,E,A*31
$GPVTG,272.0,T,0.0,M,45.6,N,84.5,K*47
$GPGGA,155145.00,4911.0716,N,01641.1540,E,12,12,1.0,288.8,M,0.0,M,0.0,0000*46
$GPGSA,A,3,01,02,03,04,05,06,07,08,09,10,11,12,1.2,1.0,0.5*36
$GPGSV,3,1,12,01,45,045,50,02,45,045,50,03,45,045,50,04,45,045,50*7c
$GPGSV,3,2,12,05,45,045,50,06,45,045,50,07,45,045,50,08,45,045,50*77
$GPGSV,3,3,12,09,45,045,50,10,45,045,50,11,45,045,50,12,45,045,50*71
$GPRMC,155146.00,A,4911.0719,N,1641.1339,E,46.2,272.3,181020,0.0,E,A*31
$GPVTG,272.3,T,0.0,M,46.2,N,85.6,K*41
$GPGGA,155146.00,4911.0719,N,01641.1339,E,12,12,1.0,288.6,M,0.0,M,0.0,0000*4c
$GPGSA,A,3,01,02,03,04,05,06,07,08,09,10,11,12,1.2,1.0,0.5*36
$GPGSV,3,1,12,01,45,045,50,02,45,045,50,03,45,045,50,04,45,045,50*7c
$GPGSV,3,2,12,05,45,045,50,06,45,045,50,07,45,045,50,08,45,045,50*77
$GPGSV,3,3,12,09,45,045,50,10,45,045,50,11,45,045,50,12,45,045,50*71
$GPRMC,155147.00,A,4911.0722,N,1641.1138,E,46.2,273.0,181020,0.0,E,A*39
$GPVTG,273.0,T,0.0,M,46.2,N,85.5,K*40
$GPGGA,155147.00,4911.0722,N,01641.1138,E,12,12,1.0,288.5,M,0.0,M,0.0,0000*45
$GPGSA,A,3,01,02,03,04,05,06,07,08,09,10,11,12,1.2,1.0,0.5*36
$GPGSV,3,1,12,01,45,045,50,02,45,045,50,03,45,045,50,04,45,045,50*7c
$GPGSV,3,2,12,05,45,045,50,06,45,045,50,07,45,045,50,08,45,045,50*77
$GPGSV,3,3,12,09,45,045,50,10,45,045,50,11,45,045,50,12,45,045,50*71
$GPRMC,155148.00,A,4911.0726,N,1641.0938,E,46.2,273.2,181020,0.0,E,A*39
$GPVTG,273.2,T,0.0,M,46.2,N,85.5,K*42
$GPGGA,155148.00,4911.0726,N,01641.0938,E,12,12,1.0,288.4,M,0.0,M,0.0,0000*46
$GPGSA,A,3,01,02,03,04,05,06,07,08,09,10,11,12,1.2,1.0,0.5*36
$GPGSV,3,1,12,01,45,045,50,02,45,045,50,03,45,045,50,04,45,045,50*7c
$GPGSV,3,2,12,05,45,045,50,06,45,045,50,07,45,045,50,08,45,045,50*77
$GPGSV,3,3,12,09,45,045,50,10,45,045,50,11,45,045,50,12,45,045,50*71
$GPRMC,155149.00,A,4911.0731,N,1641.0739,E,46.1,273.4,181020,0.0,E,A*34
$GPVTG,273.4,T,0.0,M,46.1,N,85.4,K*46
$GPGGA,155149.00,4911.0731,N,01641.0739,E,12,12,1.0,288.1,M,0.0,M,0.0,0000*4b
$GPGSA,A,3,01,02,03,04,05,06,07,08,09,10,11,12,1.2,1.1,0.5*37
$GPGSV,3,1,12,01,45,045,50,02,45,045,50,03,45,045,50,04,45,045,50*7c
$GPGSV,3,2,12,05,45,045,50,06,45,045,50,07,45,045,50,08,45,045,50*77
$GPGSV,3,3,12,09,45,045,50,10,45,045,50,11,45,045,50,12,45,045,50*71
$GPRMC,155150.00,A,4911.0735,N,1641.0538,E,46.3,273.1,181020,0.0,E,A*3c
$GPVTG,273.1,T,0.0,M,46.3,N,85.8,K*4d
$GPGGA,155150.00,4911.0735,N,01641.0538,E,12,12,1.1,288.3,M,0.0,M,0.0,0000*47
$GPGSA,A,3,01,02,03,04,05,06,07,08,09,10,11,12,1.2,1.1,0.5*37
$GPGSV,3,1,12,01,45,045,50,02,45,045,50,03,45,045,50,04,45,045,50*7c
$GPGSV,3,2,12,05,45,045,50,06,45,045,50,07,45,045,50,08,45,045,50*77
$GPGSV,3,3,12,09,45,045,50,10,45,045,50,11,45,045,50,12,45,045,50*71
$GPRMC,155151.00,A,4911.0740,N,1641.0338,E,46.4,273.0,181020,0.0,E,A*3f
$GPVTG,273.0,T,0.0,M,46.4,N,86.0,K*40
$GPGGA,155151.00,4911.0740,N,01641.0338,E,12,12,1.1,287.8,M,0.0,M,0.0,0000*46
$GPGSA,A,3,01,02,03,04,05,06,07,08,09,10,11,12,1.2,1.1,0.5*37
$GPGSV,3,1,12,01,45,045,50,02,45,045,50,03,45,045,50,04,45,045,50*7c
$GPGSV,3,2,12,05,45,045,50,06,45,045,50,07,45,045,50,08,45,045,50*77
$GPGSV,3,3,12,09,45,045,50,10,45,045,50,11,45,045,50,12,45,045,50*71
$GPRMC,155152.00,A,4911.0748,N,1641.0139,E,46.5,273.5,181020,0.0,E,A*33
$GPVTG,273.5,T,0.0,M,46.5,N,86.1,K*45
$GPGGA,155152.00,4911.0748,N,01641.0139,E,12,12,1.1,287.1,M,0.0,M,0.0,0000*47
$GPGSA,A,3,01,02,03,04,05,06,07,08,09,10,11,12,1.2,1.1,0.5*37
$GPGSV,3,1,12,01,45,045,50,02,45,045,50,03,45,045,50,04,45,045,50*7c
$GPGSV,3,2,12,05,45,045,50,06,45,045,50,07,45,045,50,08,45,045,50*77
$GPGSV,3,3,12,09,45,045,50,10,45,045,50,11,45,045,50,12,45,045,50*71
$GPRMC,155153.00,A,4911.0754,N,1640.9938,E,46.3,273.6,181020,0.0,E,A*3b
$GPVTG,273.6,T,0.0,M,46.3,N,85.7,K*45
$GPGGA,155153.00,4911.0754,N,01640.9938,E,12,12,1.1,286.4,M,0.0,M,0.0,0000*4e
$GPGSA,A,3,01,02,03,04,05,06,07,08,09,10,11,12,1.2,1.1,0.5*37
$GPGSV,3,1,12,01,45,045,50,02,45,045,50,03,45,045,50,04,45,045,50*7c
$GPGSV,3,2,12,05,45,045,50,06,45,045,50,07,45,045,50,08,45,045,50*77
$GPGSV,3,3,12,09,45,045,50,10,45,045,50,11,45,045,50,12,45,045,50*71
$GPRMC,155154.00,A,4911.0757,N,1640.9738,E,46.2,273.4,181020,0.0,E,A*32
$GPVTG,273.4,T,0.0,M,46.2,N,85.5,K*44
$GPGGA,155154.00,4911.0757,N,01640.9738,E,12,12,1.1,285.9,M,0.0,M,0.0,0000*4a
$GPGSA,A,3,01,02,03,04,05,06,07,08,09,10,11,12,1.2,1.1,0.5*37
$GPGSV,3,1,12,01,45,045,50,02,45,045,50,03,45,045,50,04,45,045,50*7c
$GPGSV,3,2,12,05,45,045,50,06,45,045,50,07,45,045,50,08,45,045,50*77
$GPGSV,3,3,12,09,45,045,50,10,45,045,50,11,45,045,50,12,45,045,50*71
$GPRMC,155155.00,A,4911.0760,N,1640.9540,E,46.3,273.0,181020,0.0,E,A*3f
$GPVTG,273.0,T,0.0,M,46.3,N,85.7,K*43
$GPGGA,155155.00,4911.0760,N,01640.9540,E,12,12,1.1,284.8,M,0.0,M,0.0,0000*42
$GPGSA,A,3,01,02,03,04,05,06,07,08,09,10,11,12,1.2,1.1,0.5*37
$GPGSV,3,1,12,01,45,045,50,02,45,045,50,03,45,045,50,04,45,045,50*7c
$GPGSV,3,2,12,05,45,045,50,06,45,045,50,07,45,045,50,08,45,045,50*77
$GPGSV,3,3,12,09,45,045,50,10,45,045,50,11,45,045,50,12,45,045,50*71
$GPRMC,155156.00,A,4911.0765,N,1640.9343,E,46.6,272.7,181020,0.0,E,A*3f
$GPVTG,272.7,T,0.0,M,46.6,N,86.3,K*47
$GPGGA,155156.00,4911.0765,N,01640.9343,E,12,12,1.1,284.3,M,0.0,M,0.0,0000*4a
$GPGSA,A,3,01,02,03,04,05,06,07,08,09,10,11,12,1.2,1.1,0.5*37
$GPGSV,3,1,12,01,45,045,50,02,45,045,50,03,45,045,50,04,45,045,50*7c
$GPGSV,3,2,12,05,45,045,50,06,45,045,50,07,45,045,50,08,45,045,50*77
$GPGSV,3,3,12,09,45,045,50,10,45,045,50,11,45,045,50,12,45,045,50*71
$GPRMC,155157.00,A,4911.0771,N,1640.9141,E,47.3,272.6,181020,0.0,E,A*3e
$GPVTG,272.6,T,0.0,M,47.3,N,87.5,K*45
$GPGGA,155157.00,4911.0771,N,01640.9141,E,12,12,1.1,283.6,M,0.0,M,0.0,0000*4c
$GPGSA,A,3,01,02,03,04,05,06,07,08,09,10,11,12,1.2,1.1,0.5*37
$GPGSV,3,1,12,01,45,045,50,02,45,045,50,03,45,045,50,04,45,045,50*7c
$GPGSV,3,2,12,05,45,045,50,06,45,045,50,07,45,045,50,08,45,045,50*77
$GPGSV,3,3,12,09,45,045,50,10,45,045,50,11,45,045,50,12,45,045,50*71
$GPRMC,155158.00,A,4911.0779,N,1640.8934,E,48.2,273.0,181020,0.0,E,A*3b
$GPVTG,273.0,T,0.0,M,48.2,N,89.2,K*45
$GPGGA,155158.00,4911.0779,N,01640.8934,E,12,12,1.1,283.4,M,0.0,M,0.0,0000*42
$GPGSA,A,3,01,02,03,04,05,06,07,08,09,10,11,12,1.2,1.1,0.5*37
$GPGSV,3,1,12,01,45,045,50,02,45,045,50,03,45,045,50,04,45,045,50*7c
$GPGSV,3,2,12,05,45,045,50,06,45,045,50,07,45,045,50,08,45,045,50*77
$GPGSV,3,3,12,09,45,045,50,10,45,045,50,11,45,045,50,12,45,045,50*71
$GPRMC,155159.00,A,4911.0788,N,1640.8722,E,49.4,273.8,181020,0.0,E,A*32
$GPVTG,273.8,T,0.0,M,49.4,N,91.5,K*44
$GPGGA,155159.00,4911.0788,N,01640.8722,E,12,12,1.1,281.7,M,0.0,M,0.0,0000*45
$GPGSA,A,3,01,02,03,04,05,06,07,08,09,10,11,12,1.2,1.1,0.5*37
$GPGSV,3,1,12,01,45,045,50,02,45,045,50,03,45,045,50,04,45,045,50*7c
$GPGSV,3,2,12,05,45,045,50,06,45,045,50,07,45,045,50,08,45,045,50*77
$GPGSV,3,3,12,09,45,045,50,10,45,045,50,11,45,045,50,12,45,045,50*71
$GPRMC,155200.00,A,4911.0796,N,1640.8503,E,50.7,274.2,181020,0.0,E,A*35
$GPVTG,274.2,T,0.0,M,50.7,N,93.9,K*4c
$GPGGA,155200.00,4911.0796,N,01640.8503,E,12,12,1.1,281.5,M,0.0,M,0.0,0000*46
$GPGSA,A,3,01,02,03,04,05,06,07,08,09,10,11,12,1.2,1.1,0.5*37
$GPGSV,3,1,12,01,45,045,50,02,45,045,50,03,45,045,50,04,45,045,50*7c
$GPGSV,3,2,12,05,45,045,50,06,45,045,50,07,45,045,50,08,45,045,50*77
$GPGSV,3,3,12,09,45,045,50,10,45,045,50,11,45,045,50,12,45,045,50*71
$GPRMC,155201.00,A,4911.0810,N,1640.8285,E,51.5,274.5,181020,0.0,E,A*38
$GPVTG,274.5,T,0.0,M,51.5,N,95.4,K*43
$GPGGA,155201.00,4911.0810,N,01640.8285,E,12,12,1.1,280.5,M,0.0,M,0.0,0000*4e
$GPGSA,A,3,01,02,03,04,05,06,07,08,09,10,11,12,1.2,1.1,0.5*37
$GPGSV,3,1,12,01,45,045,50,02,45,045,50,03,45,045,50,04,45,045,50*7c
$GPGSV,3,2,12,05,45,045,50,06,45,045,50,07,45,045,50,08,45,045,50*77
$GPGSV,3,3,12,09,45,045,50,10,45,045,50,11,45,045,50,12,45,045,50*71
$GPRMC,155202.00,A,4911.0822,N,1640.8063,E,52.4,274.4,181020,0.0,E,A*33
$GPVTG,274.4,T,0.0,M,52.4,N,97.0,K*46
$GPGGA,155202.00,4911.0822,N,01640.8063,E,12,12,1.1,279.3,M,0.0,M,0.0,0000*46
$GPGSA,A,3,01,02,03,04,05,06,07,08,09,10,11,12,1.2,1.1,0.5*37
$GPGSV,3,1,12,01,45,045,50,02,45,045,50,03,45,045,50,04,45,045,50*7c
$GPGSV,3,2,12,05,45,045,50,06,45,045,50,07,45,045,50,08,45,045,50*77
$GPGSV,3,3,12,09,45,045,50,10,45,045,50,11,45,045,50,12,45,045,50*71
$GPRMC,155203.00,A,4911.0834,N,1640.7834,E,53.3,274.3,181020,0.0,E,A*31
$GPVTG,274.3,T,0.0,M,53.3,N,98.7,K*4f
$GPGGA,155203.00,4911.0834,N,01640.7834,E,12,12,1.1,278.6,M,0.0,M,0.0,0000*41
$GPGSA,A,3,01,02,03,04,05,06,07,08,09,10,11,12,1.2,1.0,0.5*36
$GPGSV,3,1,12,01,45,045,50,02,45,045,50,03,45,045,50,04,45,045,50*7c
$GPGSV,3,2,12,05,45,045,50,06,45,045,50,07,45,045,50,08,45,045,50*77
$GPGSV,3,3,12,09,45,045,50,10,45,045,50,11,45,045,50,12,45,045,50*71
$GPRMC,155204.00,A,4911.0846,N,1640.7606,E,53.6,273.9,181020,0.0,E,A*34
$GPVTG,273.9,T,0.0,M,53.6,N,99.3,K*42
$GPGGA,155204.00,4911.0846,N,01640.7606,E,12,12,1.0,277.4,M,0.0,M,0.0,0000*40
$GPGSA,A,3,01,02,03,04,05,06,07,08,09,10,11,12,1.2,1.0,0.5*36
$GPGSV,3,1,12,01,45,045,50,02,45,045,50,03,45,045,50,04,45,045,50*7c
$GPGSV,3,2,12,05,45,045,50,06,45,045,50,07,45,045,50,08,45,045,50*77
$GPGSV,3,3,12,09,45,045,50,10,45,045,50,11,45,045,50,12,45,045,50*71
$GPRMC,155205.00,A,4911.0854,N,1640.7375,E,54.3,273.0,181020,0.0,E,A*3c
$GPVTG,273.0,T,0.0,M,54.3,N,100.5,K*7e
$GPGGA,155205.00,4911.0854,N,01640.7375,E,12,12,1.0,275.5,M,0.0,M,0.0,0000*40
$GPGSA,A,3,01,02,03,04,05,06,07,08,09,10,11,12,1.2,1.0,0.5*36
$GPGSV,3,1,12,01,45,045,50,02,45,045,50,03,45,045,50,04,45,045,50*7c
$GPGSV,3,2,12,05,45,045,50,06,45,045,50,07,45,045,50,08,45,045,50*77
$GPGSV,3,3,12,09,45,045,50,10,45,045,50,11,45,045,50,12,45,045,50*71
$GPRMC,155206.00,A,4911.0863,N,1640.7141,E,55.4,272.8,181020,0.0,E,A*31
$GPVTG,272.8,T,0.0,M,55.4,N,102.6,K*70
$GPGGA,155206.00,4911.0863,N,01640.7141,E,12,12,1.0,275.1,M,0.0,M,0.0,0000*46
$GPGSA,A,3,01,02,03,04,05,06,07,08,09,10,11,12,1.2,1.0,0.5*36
$GPGSV,3,1,12,01,45,045,50,02,45,045,50,03,45,045,50,04,45,045,50*7c
$GPGSV,3,2,12,05,45,045,50,06,45,045,50,07,45,045,50,08,45,045,50*77
$GPGSV,3,3,12,09,45,045,50,10,45,045,50,11,45,045,50,12,45,045,50*71
$GPRMC,155207.00,A,4911.0871,N,1640.6902,E,56.0,273.6,181020,0.0,E,A*35
$GPVTG,273.6,T,0.0,M,56.0,N,103.7,K*78
$GPGGA,155207.00,4911.0871,N,01640.6902,E,12,12,1.0,274.3,M,0.0,M,0.0,0000*49
$GPGSA,A,3,01,02,03,04,05,06,07,08,09,10,11,12,1.2,1.0,0.5*36
$GPGSV,3,1,12,01,45,045,50,02,45,045,50,03,45,045,50,04,45,045,50*7c
$GPGSV,3,2,12,05,45,045,50,06,45,045,50,07,45,045,50,08,45,045,50*77
$GPGSV,3,3,12,09,45,045,50,10,45,045,50,11,45,045,50,12,45,045,50*71
$GPRMC,155208.00,A,4911.0883,N,1640.6664,E,56.5,274.3,181020,0.0,E,A*3f
$GPVTG,274.3,T,0.0,M,56.5,N,104.5,K*7a
$GPGGA,155208.00,4911.0883,N,01640.6664,E,12,12,1.0,273.1,M,0.0,M,0.0,0000*41
$GPGSA,A,3,01,02,03,04,05,06,07,08,09,10,11,12,1.2,1.0,0.5*36
$GPGSV,3,1,12,01,45,045,50,02,45,045,50,03,45,045,50,04,45,045,50*7c
$GPGSV,3,2,12,05,45,045,50,06,45,045,50,07,45,045,50,08,45,045,50*77
$GPGSV,3,3,12,09,45,045,50,10,45,045,50,11,45,045,50,12,45,045,50*71
$GPRMC,155209.00,A,4911.0895,N,1640.6420,E,57.2,274.8,181020,0.0,E,A*36
$GPVTG,274.8,T,0.0,M,57.2,N,106.0,K*70
$GPGGA,155209.00,4911.0895,N,01640.6420,E,12,12,1.0,272.0,M,0.0,M,0.0,0000*45
$GPGSA,A,3,01,02,03,04,05,06,07,08,09,10,11,12,1.2,1.0,0.5*36
$GPGSV,3,1,12,01,45,045,50,02,45,045,50,03,45,045,50,04,45,045,50*7c
$GPGSV,3,2,12,05,45,045,50,06,45,045,50,07,45,045,50,08,45,045,50*77
$GPGSV,3,3,12,09,45,045,50,10,45,045,50,11,45,045,50,12,45,045,50*71
$GPRMC,155210.00,A,4911.0911,N,1640.6173,E,57.9,275.4,181020,0.0,E,A*36
$GPVTG,275.4,T,0.0,M,57.9,N,107.1,K*76
$GPGGA,155210.00,4911.0911,N,01640.6173,E,12,12,1.0,270.3,M,0.0,M,0.0,0000*42
$GPGSA,A,3,01,02,03,04,05,06,07,08,09,10,11,12,1.2,1.0,0.5*36
$GPGSV,3,1,12,01,45,045,50,02,45,045,50,03,45,045,50,04,45,045,50*7c
$GPGSV,3,2,12,05,45,045,50,06,45,045,50,07,45,045,50,08,45,045,50*77
$GPGSV,3,3,12,09,45,045,50,10,45,045,50,11,45,045,50,12,45,045,50*71
$GPRMC,155211.00,A,4911.0926,N,1640.5927,E,58.2,275.7,181020,0.0,E,A*3e
$GPVTG,275.7,T,0.0,M,58.2,N,107.7,K*77
$GPGGA,155211.00,4911.0926,N,01640.5927,E,12,12,1.0,269.0,M,0.0,M,0.0,0000*46
$GPGSA,A,3,01,02,03,04,05,06,07,08,09,10,11,12,1.2,1.0,0.5*36
$GPGSV,3,1,12,01,45,045,50,02,45,045,50,03,45,045,50,04,45,045,50*7c
$GPGSV,3,2,12,05,45,045,50,06,45,045,50,07,45,045,50,08,45,045,50*77
$GPGSV,3,3,12,09,45,045,50,10,45,045,50,11,45,045,50,12,45,045,50*71
$GPRMC,155212.00,A,4911.0945,N,1640.5675,E,59.1,276.1,181020,0.0,E,A*37
$GPVTG,276.1,T,0.0,M,59.1,N,109.4,K*7d
$GPGGA,155212.00,4911.0945,N,01640.5675,E,12,12,1.0,267.1,M,0.0,M,0.0,0000*47
$GPGSA,A,3,01,02,03,04,05,06,07,08,09,10,11,12,1.2,1.0,0.5*36
$GPGSV,3,1,12,01,45,045,50,02,45,045,50,03,45,045,50,04,45,045,50*7c
$GPGSV,3,2,12,05,45,045,50,06,45,045,50,07,45,045,50,08,45,045,50*77
$GPGSV,3,3,12,09,45,045,50,10,45,045,50,11,45,045,50,12,45,045,50*71
$GPRMC,155213.00,A,4911.0960,N,1640.5423,E,59.0,276.2,181020,0.0,E,A*32
$GPVTG,276.2,T,0.0,M,59.0,N,109.2,K*79
$GPGGA,155213.00,4911.0960,N,01640.5423,E,12,12,1.0,266.8,M,0.0,M,0.0,0000*48
$GPGSA,A,3,01,02,03,04,05,06,07,08,09,10,11,12,1.2,1.0,0.5*36
$GPGSV,3,1,12,01,45,045,50,02,45,045,50,03,45,045,50,04,45,045,50*7c
$GPGSV,3,2,12,05,45,045,50,06,45,045,50,07,45,045,50,08,45,045,50*77
$GPGSV,3,3,12,09,45,045,50,10,45,045,50,11,45,045,50,12,45,045,50*71
$GPRMC,155214.00,A,4911.0978,N,1640.5171,E,60.1,276.3,181020,0.0,E,A*34
$GPVTG,276.3,T,0.0,M,60.1,N,111.2,K*7a
$GPGGA,155214.00,4911.0978,N,01640.5171,E,12,12,1.0,265.1,M,0.0,M,0.0,0000*4e
$GPGSA,A,3,01,02,03,04,05,06,07,08,09,10,11,12,1.2,1.0,0.5*36
$GPGSV,3,1,12,01,45,045,50,02,45,045,50,03,45,045,50,04,45,045,50*7c
$GPGSV,3,2,12,05,45,045,50,06,45,045,50,07,45,045,50,08,45,045,50*77
$GPGSV,3,3,12,09,45,045,50,10,45,045,50,11,45,045,50,12,45,045,50*71
$GPRMC,155215.00,A,4911.0997,N,1640.4908,E,61.7,276.5,181020,0.0,E,A*32
$GPVTG,276.5,T,0.0,M,61.7,N,114.3,K*7f
$GPGGA,155215.00,4911.0997,N,01640.4908,E,12,12,1.0,263.7,M,0.0,M,0.0,0000*49
$GPGSA,A,3,01,02,03,04,05,06,07,08,09,10,11,12,1.2,1.0,0.5*36
$GPGSV,3,1,12,01,45,045,50,02,45,045,50,03,45,045,50,04,45,045,50*7c
$GPGSV,3,2,12,05,45,045,50,06,45,045,50,07,45,045,50,08,45,045,50*77
$GPGSV,3,3,12,09,45,045,50,10,45,045,50,11,45,045,50,12,45,045,50*71
$GPRMC,155216.00,A,4911.1014,N,1640.4641,E,63.3,276.5,181020,0.0,E,A*36
$GPVTG,276.5,T,0.0,M,63.3,N,117.3,K*7a
$GPGGA,155216.00,4911.1014,N,01640.4641,E,12,12,1.0,262.2,M,0.0,M,0.0,0000*4f
$GPGSA,A,3,01,02,03,04,05,06,07,08,09,10,11,12,1.2,1.0,0.5*36
$GPGSV,3,1,12,01,45,045,50,02,45,045,50,03,45,045,50,04,45,045,50*7c
$GPGSV,3,2,12,05,45,045,50,06,45,045,50,07,45,045,50,08,45,045,50*77
$GPGSV,3,3,12,09,45,045,50,10,45,045,50,11,45,045,50,12,45,045,50*71
$GPRMC,155217.00,A,4911.1033,N,1640.4366,E,64.9,276.7,181020,0.0,E,A*3d
$GPVTG,276.7,T,0.0,M,64.9,N,120.1,K*73
$GPGGA,155217.00,4911.1033,N,01640.4366,E,12,12,1.0,261.2,M,0.0,M,0.0,0000*48
$GPGSA,A,3,01,02,03,04,05,06,07,08,09,10,11,12,1.2,1.0,0.5*36
$GPGSV,3,1,12,01,45,045,50,02,45,045,50,03,45,045,50,04,45,045,50*7c
$GPGSV,3,2,12,05,45,045,50,06,45,045,50,07,45,045,50,08,45,045,50*77
$GPGSV,3,3,12,09,45,045,50,10,45,045,50,11,45,045,50,12,45,045,50*71
$GPRMC,155218.00,A,4911.1054,N,1640.4085,E,66.5,276.7,181020,0.0,E,A*33
$GPVTG,276.7,T,0.0,M,66.5,N,123.2,K*7d
$GPGGA,155218.00,4911.1054,N,01640.4085,E,12,12,1.0,259.9,M,0.0,M,0.0,0000*48
$GPGSA,A,3,01,02,03,04,05,06,07,08,09,10,11,12,1.2,1.0,0.5*36
$GPGSV,3,1,12,01,45,045,50,02,45,045,50,03,45,045,50,04,45,045,50*7c
$GPGSV,3,2,12,05,45,045,50,06,45,045,50,07,45,045,50,08,45,045,50*77
$GPGSV,3,3,12,09,45,045,50,10,45,045,50,11,45,045,50,12,45,045,50*71
$GPRMC,155219.00,A,4911.1076,N,1640.3798,E,68.0,277.0,181020,0.0,E,A*33
$GPVTG,277.0,T,0.0,M,68.0,N,126.0,K*77
$GPGGA,155219.00,4911.1076,N,01640.3798,E,12,12,1.0,258.3,M,0.0,M,0.0,0000*4e
$GPGSA,A,3,01,02,03,04,05,06,07,08,09,10,11,12,1.2,1.0,0.5*36
$GPGSV,3,1,12,01,45,045,50,02,45,045,50,03,45,045,50,04,45,045,50*7c
$GPGSV,3,2,12,05,45,045,50,06,45,045,50,07,45,045,50,08,45,045,50*77
$GPGSV,3,3,12,09,45,045,50,10,45,045,50,11,45,045,50,12,45,045,50*71
$GPRMC,155220.00,A,4911.1101,N,1640.3503,E,69.7,277.3,181020,0.0,E,A*3d
$GPVTG,277.3,T,0.0,M,69.7,N,129.1,K*7c
$GPGGA,155220.00,4911.1101,N,01640.3503,E,12,12,1.0,256.7,M,0.0,M,0.0,0000*4f
$GPGSA,A,3,01,02,03,04,05,06,07,08,09,10,11,12,1.2,1.0,0.5*36
$GPGSV,3,1,12,01,45,045,50,02,45,045,50,03,45,045,50,04,45,045,50*7c
$GPGSV,3,2,12,05,45,045,50,06,45,045,50,07,45,045,50,08,45,045,50*77
$GPGSV,3,3,12,09,45,045,50,10,45,045,50,11,45,045,50,12,45,045,50*71
$GPRMC,155221.00,A,4911.1128,N,1640.3205,E,71.2,277.5,181020,0.0,E,A*3c
$GPVTG,277.5,T,0.0,M,71.2,N,131.9,K*77
$GPGGA,155221.00,4911.1128,N,01640.3205,E,12,12,1.0,253.8,M,0.0,M,0.0,0000*4e
$GPGSA,A,3,01,02,03,04,05,06,07,08,09,10,11,12,1.2,1.0,0.5*36
$GPGSV,3,1,12,01,45,045,50,02,45,045,50,03,45,045,50,04,45,045,50*7c
$GPGSV,3,2,12,05,45,045,50,06,45,045,50,07,45,045,50,08,45,045,50*77
$GPGSV,3,3,12,09,45,045,50,10,45,045,50,11,45,045,50,12,45,045,50*71
$GPRMC,155222.00,A,4911.1154,N,1640.2900,E,72.4,277.8,181020,0.0,E,A*33
$GPVTG,277.8,T,0.0,M,72.4,N,134.1,K*72
$GPGGA,155222.00,4911.1154,N,01640.2900,E,12,12,1.0,253.1,M,0.0,M,0.0,0000*40
$GPGSA,A,3,01,02,03,04,05,06,07,08,09,10,11,12,1.2,1.0,0.5*36
$GPGSV,3,1,12,01,45,045,50,02,45,045,50,03,45,045,50,04,45,045,50*7c
$GPGSV,3,2,12,05,45,045,50,06,45,045,50,07,45,045,50,08,45,045,50*77
$GPGSV,3,3,12,09,45,045,50,10,45,045,50,11,45,045,50,12,45,045,50*71
$GPRMC,155223.00,A,4911.1187,N,1640.2589,E,74.0,278.3,181020,0.0,E,A*37
$GPVTG,278.3,T,0.0,M,74.0,N,137.0,K*76
$GPGGA,155223.00,4911.1187,N,01640.2589,E,12,12,1.0,251.3,M,0.0,M,0.0,0000*42
$GPGSA,A,3,01,02,03,04,05,06,07,08,09,10,11,12,1.2,1.0,0.5*36
$GPGSV,3,1,12,01,45,045,50,02,45,045,50,03,45,045,50,04,45,045,50*7c
$GPGSV,3,2,12,05,45,045,50,06,45,045,50,07,45,045,50,08,45,045,50*77
$GPGSV,3,3,12,09,45,045,50,10,45,045,50,11,45,045,50,12,45,045,50*71
$GPRMC,155224.00,A,4911.1216,N,1640.2277,E,75.0,278.4,181020,0.0,E,A*3b
$GPVTG,278.4,T,0.0,M,75.0,N,138.9,K*76
$GPGGA,155224.00,4911.1216,N,01640.2277,E,12,12,1.0,250.3,M,0.0,M,0.0,0000*49
$GPGSA,A,3,01,02,03,04,05,06,07,08,09,10,11,12,1.2,1.0,0.5*36
$GPGSV,3,1,12,01,45,045,50,02,45,045,50,03,45,045,50,04,45,045,50*7c
$GPGSV,3,2,12,05,45,045,50,06,45,045,50,07,45,045,50,08,45,045,50*77
$GPGSV,3,3,12,09,45,045,50,10,45,045,50,11,45,045,50,12,45,045,50*71
$GPRMC,155225.00,A,4911.1241,N,1640.1955,E,76.3,278.2,181020,0.0,E,A*36
$GPVTG,278.2,T,0.0,M,76.3,N,141.2,K*75
$GPGGA,155225.00,4911.1241,N,01640.1955,E,12,12,1.0,249.2,M,0.0,M,0.0,0000*4b
$GPGSA,A,3,01,02,03,04,05,06,07,08,09,10,11,12,1.2,1.0,0.5*36
$GPGSV,3,1,12,01,45,045,50,02,45,045,50,03,45,045,50,04,45,045,50*7c
$GPGSV,3,2,12,05,45,045,50,06,45,045,50,07,45,045,50,08,45,045,50*77
$GPGSV,3,3,12,09,45,045,50,10,45,045,50,11,45,045,50,12,45,045,50*71
$GPRMC,155226.00,A,4911.1270,N,1640.1630,E,77.4,278.2,181020,0.0,E,A*3d
$GPVTG,278.2,T,0.0,M,77.4,N,143.4,K*77
$GPGGA,155226.00,4911.1270,N,01640.1630,E,12,12,1.0,247.6,M,0.0,M,0.0,0000*4c
$GPGSA,A,3,01,02,03,04,05,06,07,08,09,10,11,12,1.2,1.0,0.5*36
$GPGSV,3,1,12,01,45,045,50,02,45,045,50,03,45,045,50,04,45,045,50*7c
$GPGSV,3,2,12,05,45,045,50,06,45,045,50,07,45,045,50,08,45,045,50*77
$GPGSV,3,3,12,09,45,045,50,10,45,045,50,11,45,045,50,12,45,045,50*71
$GPRMC,155227.00,A,4911.1301,N,1640.1299,E,78.7,278.3,181020,0.0,E,A*31
$GPVTG,278.3,T,0.0,M,78.7,N,145.8,K*70
$GPGGA,155227.00,4911.1301,N,01640.1299,E,12,12,1.0,246.3,M,0.0,M,0.0,0000*49
$GPGSA,A,3,01,02,03,04,05,06,07,08,09,10,11,12,1.2,1.0,0.5*36
$GPGSV,3,1,12,01,45,045,50,02,45,045,50,03,45,045,50,04,45,045,50*7c
$GPGSV,3,2,12,05,45,045,50,06,45,045,50,07,45,045,50,08,45,045,50*77
$GPGSV,3,3,12,09,45,045,50,10,45,045,50,11,45,045,50,12,45,045,50*71
$GPRMC,155228.00,A,4911.1335,N,1640.0960,E,80.0,278.7,181020,0.0,E,A*31
$GPVTG,278.7,T,0.0,M,80.0,N,148.1,K*70
$GPGGA,155228.00,4911.1335,N,01640.0960,E,12,12,1.0,244.6,M,0.0,M,0.0,0000*4a
$GPGSA,A,3,01,02,03,04,05,06,07,08,09,10,11,12,1.2,1.0,0.6*35
$GPGSV,3,1,12,01,45,045,50,02,45,045,50,03,45,045,50,04,45,045,50*7c
$GPGSV,3,2,12,05,45,045,50,06,45,045,50,07,45,045,50,08,45,045,50*77
$GPGSV,3,3,12,09,45,045,50,10,45,045,50,11,45,045,50,12,45,045,50*71
$GPRMC,155229.00,A,4911.1373,N,1640.0617,E,81.2,279.4,181020,0.0,E,A*3c
$GPVTG,279.4,T,0.0,M,81.2,N,150.3,K*7a
$GPGGA,155229.00,4911.1373,N,01640.0617,E,12,12,1.0,243.2,M,0.0,M,0.0,0000*45
$GPGSA,A,3,01,02,03,04,05,06,07,08,09,10,11,12,1.2,1.0,0.6*35
$GPGSV,3,1,12,01,45,045,50,02,45,045,50,03,45,045,50,04,45,045,50*7c
$GPGSV,3,2,12,05,45,045,50,06,45,045,50,07,45,045,50,08,45,045,50*77
$GPGSV,3,3,12,09,45,045,50,10,45,045,50,11,45,045,50,12,45,045,50*71
$GPRMC,155230.00,A,4911.1412,N,1640.0278,E,80.9,280.2,181020,0.0,E,A*33
$GPVTG,280.2,T,0.0,M,80.9,N,149.9,K*72
$GPGGA,155230.00,4911.1412,N,01640.0278,E,12,12,1.0,241.6,M,0.0,M,0.0,0000*46
$GPGSA,A,3,01,02,03,04,05,06,07,08,09,10,11,12,1.2,1.0,0.6*35
$GPGSV,3,1,12,01,45,045,50,02,45,045,50,03,45,045,50,04,45,045,50*7c
$GPGSV,3,2,12,05,45,045,50,06,45,045,50,07,45,045,50,08,45,045,50*77
$GPGSV,3,3,12,09,45,045,50,10,45,045,50,11,45,045,50,12,45,045,50*71
$GPRMC,155231.00,A,4911.1453,N,1639.9945,E,79.9,281.4,181020,0.0,E,A*34
$GPVTG,281.4,T,0.0,M,79.9,N,147.9,K*7d
$GPGGA,155231.00,4911.1453,N,01639.9945,E,12,12,1.0,240.0,M,0.0,M,0.0,0000*47
$GPGSA,A,3,01,02,03,04,05,06,07,08,09,10,11,12,1.2,1.0,0.5*36
$GPGSV,3,1,12,01,45,045,50,02,45,045,50,03,45,045,50,04,45,045,50*7c
$GPGSV,3,2,12,05,45,045,50,06,45,045,50,07,45,045,50,08,45,045,50*77
$GPGSV,3,3,12,09,45,045,50,10,45,045,50,11,45,045,50,12,45,045,50*71
$GPRMC,155232.00,A,4911.1500,N,1639.9616,E,79.2,282.1,181020,0.0,E,A*34
$GPVTG,282.1,T,0.0,M,79.2,N,146.6,K*7e
$GPGGA,155232.00,4911.1500,N,01639.9616,E,12,12,1.0,238.3,M,0.0,M,0.0,0000*46
$GPGSA,A,3,01,02,03,04,05,06,07,08,09,10,11,12,1.2,1.0,0.5*36
$GPGSV,3,1,12,01,45,045,50,02,45,045,50,03,45,045,50,04,45,045,50*7c
$GPGSV,3,2,12,05,45,045,50,06,45,045,50,07,45,045,50,08,45,045,50*77
$GPGSV,3,3,12,09,45,045,50,10,45,045,50,11,45,045,50,12,45,045,50*71
$GPRMC,155233.00,A,4911.1547,N,1639.9295,E,78.2,282.7,181020,0.0,E,A*3e
$GPVTG,282.7,T,0.0,M,78.2,N,144.9,K*74
$GPGGA,155233.00,4911.1547,N,01639.9295,E,12,12,1.0,236.2,M,0.0,M,0.0,0000*44
$GPGSA,A,3,01,02,03,04,05,06,07,08,09,10,11,12,1.2,1.0,0.5*36
$GPGSV,3,1,12,01,45,045,50,02,45,045,50,03,45,045,50,04,45,045,50*7c
$GPGSV,3,2,12,05,45,045,50,06,45,045,50,07,45,045,50,08,45,045,50*77
$GPGSV,3,3,12,09,45,045,50,10,45,045,50,11,45,045,50,12,45,045,50*71
$GPRMC,155234.00,A,4911.1596,N,1639.8976,E,77.4,283.3,181020,0.0,E,A*3e
$GPVTG,283.3,T,0.0,M,77.4,N,143.3,K*75
$GPGGA,155234.00,4911.1596,N,01639.8976,E,12,12,1.0,234.7,M,0.0,M,0.0,0000*4f
$GPGSA,A,3,01,02,03,04,05,06,07,08,09,10,11,12,1.2,1.0,0.5*36
$GPGSV,3,1,12,01,45,045,50,02,45,045,50,03,45,045,50,04,45,045,50*7c
$GPGSV,3,2,12,05,45,045,50,06,45,045,50,07,45,045,50,08,45,045,50*77
$GPGSV,3,3,12,09,45,045,50,10,45,045,50,11,45,045,50,12,45,045,50*71
$GPRMC,155235.00,A,4911.1648,N,1639.8661,E,76.5,284.2,181020,0.0,E,A*30
$GPVTG,284.2,T,0.0,M,76.5,N,141.6,K*74
$GPGGA,155235.00,4911.1648,N,01639.8661,E,12,12,1.0,232.7,M,0.0,M,0.0,0000*41
$GPGSA,A,3,01,02,03,04,05,06,07,08,09,10,11,12,1.2,1.0,0.5*36
$GPGSV,3,1,12,01,45,045,50,02,45,045,50,03,45,045,50,04,45,045,50*7c
$GPGSV,3,2,12,05,45,045,50,06,45,045,50,07,45,045,50,08,45,045,50*77
$GPGSV,3,3,12,09,45,045,50,10,45,045,50,11,45,045,50,12,45,045,50*71
$GPRMC,155236.00,A,4911.1703,N,1639.8351,E,75.7,285.3,181020,0.0,E,A*3a
$GPVTG,285.3,T,0.0,M,75.7,N,140.3,K*71
$GPGGA,155236.00,4911.1703,N,01639.8351,E,12,12,1.0,230.8,M,0.0,M,0.0,0000*47
$GPGSA,A,3,01,02,03,04,05,06,07,08,09,10,11,12,1.2,1.0,0.5*36
$GPGSV,3,1,12,01,45,045,50,02,45,045,50,03,45,045,50,04,45,045,50*7c
$GPGSV,3,2,12,05,45,045,50,06,45,045,50,07,45,045,50,08,45,045,50*77
$GPGSV,3,3,12,09,45,045,50,10,45,045,50,11,45,045,50,12,45,045,50*71
$GPRMC,155237.00,A,4911.1760,N,1639.8043,E,75.2,286.1,181020,0.0,E,A*3a
$GPVTG,286.1,T,0.0,M,75.2,N,139.3,K*7b
$GPGGA,155237.00,4911.1760,N,01639.8043,E,12,12,1.0,230.3,M,0.0,M,0.0,0000*48
$GPGSA,A,3,01,02,03,04,05,06,07,08,09,10,11,12,1.2,1.1,0.5*37
$GPGSV,3,1,12,01,45,045,50,02,45,045,50,03,45,045,50,04,45,045,50*7c
$GPGSV,3,2,12,05,45,045,50,06,45,045,50,07,45,045,50,08,45,045,50*77
$GPGSV,3,3,12,09,45,045,50,10,45,045,50,11,45,045,50,12,45,045,50*71
$GPRMC,155238.00,A,4911.1817,N,1639.7740,E,74.6,286.5,181020,0.0,E,A*30
$GPVTG,286.5,T,0.0,M,74.6,N,138.1,K*79
$GPGGA,155238.00,4911.1817,N,01639.7740,E,12,12,1.1,228.3,M,0.0,M,0.0,0000*4b
$GPGSA,A,3,01,02,03,04,05,06,07,08,09,10,11,12,1.2,1.1,0.5*37
$GPGSV,3,1,12,01,45,045,50,02,45,045,50,03,45,045,50,04,45,045,50*7c
$GPGSV,3,2,12,05,45,045,50,06,45,045,50,07,45,045,50,08,45,045,50*77
$GPGSV,3,3,12,09,45,045,50,10,45,045,50,11,45,045,50,12,45,045,50*71
$GPRMC,155239.00,A,4911.1875,N,1639.7439,E,73.6,286.9,181020,0.0,E,A*33
$GPVTG,286.9,T,0.0,M,73.6,N,136.3,K*7e
$GPGGA,155239.00,4911.1875,N,01639.7439,E,12,12,1.1,228.3,M,0.0,M,0.0,0000*43
$GPGSA,A,3,01,02,03,04,05,06,07,08,09,10,11,12,1.2,1.1,0.5*37
$GPGSV,3,1,12,01,45,045,50,02,45,045,50,03,45,045,50,04,45,045,50*7c
$GPGSV,3,2,12,05,45,045,50,06,45,045,50,07,45,045,50,08,45,045,50*77
$GPGSV,3,3,12,09,45,045,50,10,45,045,50,11,45,045,50,12,45,045,50*71
$GPRMC,155240.00,A,4911.1937,N,1639.7148,E,72.5,287.4,181020,0.0,E,A*37
$GPVTG,287.4,T,0.0,M,72.5,N,134.2,K*73
$GPGGA,155240.00,4911.1937,N,01639.7148,E,12,12,1.1,226.3,M,0.0,M,0.0,0000*47
$GPGSA,A,3,01,02,03,04,05,06,07,08,09,10,11,12,1.2,1.1,0.5*37
$GPGSV,3,1,12,01,45,045,50,02,45,045,50,03,45,045,50,04,45,045,50*7c
$GPGSV,3,2,12,05,45,045,50,06,45,045,50,07,45,045,50,08,45,045,50*77
$GPGSV,3,3,12,09,45,045,50,10,45,045,50,11,45,045,50,12,45,045,50*71
$GPRMC,155241.00,A,4911.1997,N,1639.6856,E,71.6,287.9,181020,0.0,E,A*36
$GPVTG,287.9,T,0.0,M,71.6,N,132.6,K*7c
$GPGGA,155241.00,4911.1997,N,01639.6856,E,12,12,1.1,226.7,M,0.0,M,0.0,0000*4f
$GPGSA,A,3,01,02,03,04,05,06,07,08,09,10,11,12,1.2,1.1,0.4*36
$GPGSV,3,1,12,01,45,045,50,02,45,045,50,03,45,045,50,04,45,045,50*7c
$GPGSV,3,2,12,05,45,045,50,06,45,045,50,07,45,045,50,08,45,045,50*77
$GPGSV,3,3,12,09,45,045,50,10,45,045,50,11,45,045,50,12,45,045,50*71
$GPRMC,155242.00,A,4911.2056,N,1639.6572,E,70.6,288.1,181020,0.0,E,A*3f
$GPVTG,288.1,T,0.0,M,70.6,N,130.7,K*79
$GPGGA,155242.00,4911.2056,N,01639.6572,E,12,12,1.1,225.4,M,0.0,M,0.0,0000*40
$GPGSA,A,3,01,02,03,04,05,06,07,08,09,10,11,12,1.2,1.1,0.4*36
$GPGSV,3,1,12,01,45,045,50,02,45,045,50,03,45,045,50,04,45,045,50*7c
$GPGSV,3,2,12,05,45,045,50,06,45,045,50,07,45,045,50,08,45,045,50*77
$GPGSV,3,3,12,09,45,045,50,10,45,045,50,11,45,045,50,12,45,045,50*71
$GPRMC,155243.00,A,4911.2117,N,1639.6291,E,69.6,288.2,181020,0.0,E,A*3b
$GPVTG,288.2,T,0.0,M,69.6,N,128.9,K*75
$GPGGA,155243.00,4911.2117,N,01639.6291,E,12,12,1.1,225.1,M,0.0,M,0.0,0000*4a
$GPGSA,A,3,01,02,03,04,05,06,07,08,09,10,11,12,1.2,1.1,0.4*36
$GPGSV,3,1,12,01,45,045,50,02,45,045,50,03,45,045,50,04,45,045,50*7c
$GPGSV,3,2,12,05,45,045,50,06,45,045,50,07,45,045,50,08,45,045,50*77
$GPGSV,3,3,12,09,45,045,50,10,45,045,50,11,45,045,50,12,45,045,50*71
$GPRMC,155244.00,A,4911.2177,N,1639.6019,E,68.7,288.5,181020,0.0,E,A*3f
$GPVTG,288.5,T,0.0,M,68.7,N,127.2,K*76
$GPGGA,155244.00,4911.2177,N,01639.6019,E,12,12,1.1,224.2,M,0.0,M,0.0,0000*4b
$GPGSA,A,3,01,02,03,04,05,06,07,08,09,10,11,12,1.2,1.1,0.4*36
$GPGSV,3,1,12,01,45,045,50,02,45,045,50,03,45,045,50,04,45,045,50*7c
$GPGSV,3,2,12,05,45,045,50,06,45,045,50,07,45,045,50,08,45,045,50*77
$GPGSV,3,3,12,09,45,045,50,10,45,045,50,11,45,045,50,12,45,045,50*71
$GPRMC,155245.00,A,4911.2239,N,1639.5740,E,68.3,288.9,181020,0.0,E,A*37
$GPVTG,288.9,T,0.0,M,68.3,N,126.5,K*78
$GPGGA,155245.00,4911.2239,N,01639.5740,E,12,12,1.1,224.6,M,0.0,M,0.0,0000*4f
$GPGSA,A,3,01,02,03,04,05,06,07,08,09,10,11,12,1.2,1.1,0.4*36
$GPGSV,3,1,12,01,45,045,50,02,45,045,50,03,45,045,50,04,45,045,50*7c
$GPGSV,3,2,12,05,45,045,50,06,45,045,50,07,45,045,50,08,45,045,50*77
$GPGSV,3,3,12,09,45,045,50,10,45,045,50,11,45,045,50,12,45,045,50*71
$GPRMC,155246.00,A,4911.2300,N,1639.5466,E,67.8,289.1,181020,0.0,E,A*35
$GPVTG,289.1,T,0.0,M,67.8,N,125.7,K*74
$GPGGA,155246.00,4911.2300,N,01639.5466,E,12,12,1.1,224.6,M,0.0,M,0.0,0000*40
$GPGSA,A,3,01,02,03,04,05,06,07,08,09,10,11,12,1.2,1.1,0.4*36
$GPGSV,3,1,12,01,45,045,50,02,45,045,50,03,45,045,50,04,45,045,50*7c
$GPGSV,3,2,12,05,45,045,50,06,45,045,50,07,45,045,50,08,45,045,50*77
$GPGSV,3,3,12,09,45,045,50,10,45,045,50,11,45,045,50,12,45,045,50*71
$GPRMC,155247.00,A,4911.2359,N,1639.5197,E,67.2,289.3,181020,0.0,E,A*3b
$GPVTG,289.3,T,0.0,M,67.2,N,124.5,K*7f
$GPGGA,155247.00,4911.2359,N,01639.5197,E,12,12,1.1,224.5,M,0.0,M,0.0,0000*45
$GPGSA,A,3,01,02,03,04,05,06,07,08,09,10,11,12,1.2,1.1,0.4*36
$GPGSV,3,1,12,01,45,045,50,02,45,045,50,03,45,045,50,04,45,045,50*7c
$GPGSV,3,2,12,05,45,045,50,06,45,045,50,07,45,045,50,08,45,045,50*77
$GPGSV,3,3,12,09,45,045,50,10,45,045,50,11,45,045,50,12,45,045,50*71
$GPRMC,155248.00,A,4911.2419,N,1639.4930,E,66.7,289.4,181020,0.0,E,A*30
$GPVTG,289.4,T,0.0,M,66.7,N,123.5,K*7b
$GPGGA,155248.00,4911.2419,N,01639.4930,E,12,12,1.1,225.0,M,0.0,M,0.0,0000*49
$GPGSA,A,3,01,02,03,04,05,06,07,08,09,10,11,12,1.2,1.1,0.4*36
$GPGSV,3,1,12,01,45,045,50,02,45,045,50,03,45,045,50,04,45,045,50*7c
$GPGSV,3,2,12,05,45,045,50,06,45,045,50,07,45,045,50,08,45,045,50*77
$GPGSV,3,3,12,09,45,045,50,10,45,045,50,11,45,045,50,12,45,045,50*71
$GPRMC,155249.00,A,4911.2479,N,1639.4664,E,66.2,289.4,181020,0.0,E,A*3c
$GPVTG,289.4,T,0.0,M,66.2,N,122.7,K*7d
$GPGGA,155249.00,4911.2479,N,01639.4664,E,12,12,1.1,224.0,M,0.0,M,0.0,0000*41
$GPGSA,A,3,01,02,03,04,05,06,07,08,09,10,11,12,1.2,1.1,0.4*36
$GPGSV,3,1,12,01,45,045,50,02,45,045,50,03,45,045,50,04,45,045,50*7c
$GPGSV,3,2,12,05,45,045,50,06,45,045,50,07,45,045,50,08,45,045,50*77
$GPGSV,3,3,12,09,45,045,50,10,45,045,50,11,45,045,50,12,45,045,50*71
$GPRMC,155250.00,A,4911.2538,N,1639.4402,E,65.6,289.6,181020,0.0,E,A*37
$GPVTG,289.6,T,0.0,M,65.6,N,121.5,K*79
$GPGGA,155250.00,4911.2538,N,01639.4402,E,12,12,1.1,223.7,M,0.0,M,0.0,0000*4f
$GPGSA,A,3,01,02,03,04,05,06,07,08,09,10,11,12,1.2,1.1,0.4*36
$GPGSV,3,1,12,01,45,045,50,02,45,045,50,03,45,045,50,04,45,045,50*7c
$GPGSV,3,2,12,05,45,045,50,06,45,045,50,07,45,045,50,08,45,045,50*77
$GPGSV,3,3,12,09,45,045,50,10,45,045,50,11,45,045,50,12,45,045,50*71
$GPRMC,155251.00,A,4911.2600,N,1639.4143,E,64.9,290.2,181020,0.0,E,A*3c
$GPVTG,290.2,T,0.0,M,64.9,N,120.1,K*7e
$GPGGA,155251.00,4911.2600,N,01639.4143,E,12,12,1.1,223.4,M,0.0,M,0.0,0000*45
$GPGSA,A,3,01,02,03,04,05,06,07,08,09,10,11,12,1.2,1.1,0.4*36
$GPGSV,3,1,12,01,45,045,50,02,45,045,50,03,45,045,50,04,45,045,50*7c
$GPGSV,3,2,12,05,45,045,50,06,45,045,50,07,45,045,50,08,45,045,50*77
$GPGSV,3,3,12,09,45,045,50,10,45,045,50,11,45,045,50,12,45,045,50*71
$GPRMC,155252.00,A,4911.2665,N,1639.3889,E,63.9,290.9,181020,0.0,E,A*38
$GPVTG,290.9,T,0.0,M,63.9,N,118.4,K*7c
$GPGGA,155252.00,4911.2665,N,01639.3889,E,12,12,1.1,223.2,M,0.0,M,0.0,0000*4b
$GPGSA,A,3,01,02,03,04,05,06,07,08,09,10,11,12,1.2,1.1,0.4*36
$GPGSV,3,1,12,01,45,045,50,02,45,045,50,03,45,045,50,04,45,045,50*7c
$GPGSV,3,2,12,05,45,045,50,06,45,045,50,07,45,045,50,08,45,045,50*77
$GPGSV,3,3,12,09,45,045,50,10,45,045,50,11,45,045,50,12,45,045,50*71
$GPRMC,155253.00,A,4911.2726,N,1639.3643,E,62.7,291.6,181020,0.0,E,A*36
$GPVTG,291.6,T,0.0,M,62.7,N,116.2,K*75
$GPGGA,155253.00,4911.2726,N,01639.3643,E,12,12,1.1,221.7,M,0.0,M,0.0,0000*43
$GPGSA,A,3,01,02,03,04,05,06,07,08,09,10,11,12,1.2,1.1,0.4*36
$GPGSV,3,1,12,01,45,045,50,02,45,045,50,03,45,045,50,04,45,045,50*7c
$GPGSV,3,2,12,05,45,045,50,06,45,045,50,07,45,045,50,08,45,045,50*77
$GPGSV,3,3,12,09,45,045,50,10,45,045,50,11,45,045,50,12,45,045,50*71
$GPRMC,155254.00,A,4911.2791,N,1639.3399,E,62.1,293.2,181020,0.0,E,A*3f
$GPVTG,293.2,T,0.0,M,62.1,N,115.0,K*74
$GPGGA,155254.00,4911.2791,N,01639.3399,E,12,12,1.1,221.1,M,0.0,M,0.0,0000*4c
$GPGSA,A,3,01,02,03,04,05,06,07,08,09,10,11,12,1.2,1.1,0.4*36
$GPGSV,3,1,12,01,45,045,50,02,45,045,50,03,45,045,50,04,45,045,50*7c
$GPGSV,3,2,12,05,45,045,50,06,45,045,50,07,45,045,50,08,45,045,50*77
$GPGSV,3,3,12,09,45,045,50,10,45,045,50,11,45,045,50,12,45,045,50*71
$GPRMC,155255.00,A,4911.2863,N,1639.3159,E,61.8,294.7,181020,0.0,E,A*3a
$GPVTG,294.7,T,0.0,M,61.8,N,114.4,K*79
$GPGGA,155255.00,4911.2863,N,01639.3159,E,12,12,1.1,221.1,M,0.0,M,0.0,0000*41
$GPGSA,A,3,01,02,03,04,05,06,07,08,09,10,11,12,1.2,1.1,0.5*37
$GPGSV,3,1,12,01,45,045,50,02,45,045,50,03,45,045,50,04,45,045,50*7c
$GPGSV,3,2,12,05,45,045,50,06,45,045,50,07,45,045,50,08,45,045,50*77
$GPGSV,3,3,12,09,45,045,50,10,45,045,50,11,45,045,50,12,45,045,50*71
$GPRMC,155256.00,A,4911.2939,N,1639.2924,E,61.5,296.4,181020,0.0,E,A*38
$GPVTG,296.4,T,0.0,M,61.5,N,113.9,K*7f
$GPGGA,155256.00,4911.2939,N,01639.2924,E,12,12,1.1,220.8,M,0.0,M,0.0,0000*47
$GPGSA,A,3,01,02,03,04,05,06,07,08,09,10,11,12,1.2,1.1,0.5*37
$GPGSV,3,1,12,01,45,045,50,02,45,045,50,03,45,045,50,04,45,045,50*7c
$GPGSV,3,2,12,05,45,045,50,06,45,045,50,07,45,045,50,08,45,045,50*77
$GPGSV,3,3,12,09,45,045,50,10,45,045,50,11,45,045,50,12,45,045,50*71
$GPRMC,155257.00,A,4911.3021,N,1639.2695,E,61.4,298.9,181020,0.0,E,A*3f
$GPVTG,298.9,T,0.0,M,61.4,N,113.8,K*7c
$GPGGA,155257.00,4911.3021,N,01639.2695,E,12,12,1.1,221.0,M,0.0,M,0.0,0000*4b
$GPGSA,A,3,01,02,03,04,05,06,07,08,09,10,11,12,1.2,1.1,0.5*37
$GPGSV,3,1,12,01,45,045,50,02,45,045,50,03,45,045,50,04,45,045,50*7c
$GPGSV,3,2,12,05,45,045,50,06,45,045,50,07,45,045,50,08,45,045,50*77
$GPGSV,3,3,12,09,45,045,50,10,45,045,50,11,45,045,50,12,45,045,50*71
$GPRMC,155258.00,A,4911.3111,N,1639.2472,E,61.4,301.1,181020,0.0,E,A*30
$GPVTG,301.1,T,0.0,M,61.4,N,113.8,K*75
$GPGGA,155258.00,4911.3111,N,01639.2472,E,12,12,1.1,221.1,M,0.0,M,0.0,0000*4c
$GPGSA,A,3,01,02,03,04,05,06,07,08,09,10,11,12,1.2,1.1,0.5*37
$GPGSV,3,1,12,01,45,045,50,02,45,045,50,03,45,045,50,04,45,045,50*7c
$GPGSV,3,2,12,05,45,045,50,06,45,045,50,07,45,045,50,08,45,045,50*77
$GPGSV,3,3,12,09,45,045,50,10,45,045,50,11,45,045,50,12,45,045,50*71
$GPRMC,155259.00,A,4911.3203,N,1639.2255,E,61.2,302.5,181020,0.0,E,A*33
$GPVTG,302.5,T,0.0,M,61.2,N,113.4,K*78
$GPGGA,155259.00,4911.3203,N,01639.2255,E,12,12,1.1,220.7,M,0.0,M,0.0,0000*49
$GPGSA,A,3,01,02,03,04,05,06,07,08,09,10,11,12,1.2,1.1,0.5*37
$GPGSV,3,1,12,01,45,045,50,02,45,045,50,03,45,045,50,04,45,045,50*7c
$GPGSV,3,2,12,05,45,045,50,06,45,045,50,07,45,045,50,08,45,045,50*77
$GPGSV,3,3,12,09,45,045,50,10,45,045,50,11,45,045,50,12,45,045,50*71
$GPRMC,155300.00,A,4911.3297,N,1639.2040,E,61.0,303.2,181020,0.0,E,A*31
$GPVTG,303.2,T,0.0,M,61.0,N,113.0,K*78
$GPGGA,155300.00,4911.3297,N,01639.2040,E,12,12,1.1,220.4,M,0.0,M,0.0,0000*4c
$GPGSA,A,3,01,02,03,04,05,06,07,08,09,10,11,12,1.2,1.1,0.5*37
$GPGSV,3,1,12,01,45,045,50,02,45,045,50,03,45,045,50,04,45,045,50*7c
$GPGSV,3,2,12,05,45,045,50,06,45,045,50,07,45,045,50,08,45,045,50*77
$GPGSV,3,3,12,09,45,045,50,10,45,045,50,11,45,045,50,12,45,045,50*71
$GPRMC,155301.00,A,4911.3390,N,1639.1825,E,60.7,303.3,181020,0.0,E,A*39
$GPVTG,303.3,T,0.0,M,60.7,N,112.4,K*7a
$GPGGA,155301.00,4911.3390,N,01639.1825,E,12,12,1.1,220.2,M,0.0,M,0.0,0000*45
$GPGSA,A,3,01,02,03,04,05,06,07,08,09,10,11,12,1.2,1.1,0.4*36
$GPGSV,3,1,12,01,45,045,50,02,45,045,50,03,45,045,50,04,45,045,50*7c
$GPGSV,3,2,12,05,45,045,50,06,45,045,50,07,45,045,50,08,45,045,50*77
$GPGSV,3,3,12,09,45,045,50,10,45,045,50,11,45,045,50,12,45,045,50*71
$GPRMC,155302.00,A,4911.3482,N,1639.1614,E,59.6,303.3,181020,0.0,E,A*39
$GPVTG,303.3,T,0.0,M,59.6,N,110.3,K*74
$GPGGA,155302.00,4911.3482,N,01639.1614,E,12,12,1.1,220.6,M,0.0,M,0.0,0000*4a
$GPGSA,A,3,01,02,03,04,05,06,07,08,09,10,11,12,1.2,1.1,0.4*36
$GPGSV,3,1,12,01,45,045,50,02,45,045,50,03,45,045,50,04,45,045,50*7c
$GPGSV,3,2,12,05,45,045,50,06,45,045,50,07,45,045,50,08,45,045,50*77
$GPGSV,3,3,12,09,45,045,50,10,45,045,50,11,45,045,50,12,45,045,50*71
$GPRMC,155303.00,A,4911.3572,N,1639.1406,E,58.5,303.1,181020,0.0,E,A*37
$GPVTG,303.1,T,0.0,M,58.5,N,108.4,K*7a
$GPGGA,155303.00,4911.3572,N,01639.1406,E,12,12,1.1,221.0,M,0.0,M,0.0,0000*43
$GPGSA,A,3,01,02,03,04,05,06,07,08,09,10,11,12,1.2,1.1,0.4*36
$GPGSV,3,1,12,01,45,045,50,02,45,045,50,03,45,045,50,04,45,045,50*7c
$GPGSV,3,2,12,05,45,045,50,06,45,045,50,07,45,045,50,08,45,045,50*77
$GPGSV,3,3,12,09,45,045,50,10,45,045,50,11,45,045,50,12,45,045,50*71
$GPRMC,155304.00,A,4911.3660,N,1639.1202,E,57.6,302.7,181020,0.0,E,A*39
$GPVTG,302.7,T,0.0,M,57.6,N,106.7,K*7c
$GPGGA,155304.00,4911.3660,N,01639.1202,E,12,12,1.1,220.6,M,0.0,M,0.0,0000*41
$GPGSA,A,3,01,02,03,04,05,06,07,08,09,10,11,12,1.2,1.1,0.4*36
$GPGSV,3,1,12,01,45,045,50,02,45,045,50,03,45,045,50,04,45,045,50*7c
$GPGSV,3,2,12,05,45,045,50,06,45,045,50,07,45,045,50,08,45,045,50*77
$GPGSV,3,3,12,09,45,045,50,10,45,045,50,11,45,045,50,12,45,045,50*71
$GPRMC,155305.00,A,4911.3743,N,1639.0998,E,57.0,301.2,181020,0.0,E,A*31
$GPVTG,301.2,T,0.0,M,57.0,N,105.6,K*7e
$GPGGA,155305.00,4911.3743,N,01639.0998,E,12,12,1.1,220.6,M,0.0,M,0.0,0000*49
$GPGSA,A,3,01,02,03,04,05,06,07,08,09,10,11,12,1.2,1.1,0.4*36
$GPGSV,3,1,12,01,45,045,50,02,45,045,50,03,45,045,50,04,45,045,50*7c
$GPGSV,3,2,12,05,45,045,50,06,45,045,50,07,45,045,50,08,45,045,50*77
$GPGSV,3,3,12,09,45,045,50,10,45,045,50,11,45,045,50,12,45,045,50*71
$GPRMC,155306.00,A,4911.3823,N,1639.0791,E,56.7,299.5,181020,0.0,E,A*3d
$GPVTG,299.5,T,0.0,M,56.7,N,105.0,K*79
$GPGGA,155306.00,4911.3823,N,01639.0791,E,12,12,1.1,219.4,M,0.0,M,0.0,0000*4c
$GPGSA,A,3,01,02,03,04,05,06,07,08,09,10,11,12,1.2,1.1,0.4*36
$GPGSV,3,1,12,01,45,045,50,02,45,045,50,03,45,045,50,04,45,045,50*7c
$GPGSV,3,2,12,05,45,045,50,06,45,045,50,07,45,045,50,08,45,045,50*77
$GPGSV,3,3,12,09,45,045,50,10,45,045,50,11,45,045,50,12,45,045,50*71
$GPRMC,155307.00,A,4911.3897,N,1639.0579,E,56.7,297.4,181020,0.0,E,A*38
$GPVTG,297.4,T,0.0,M,56.7,N,105.0,K*76
$GPGGA,155307.00,4911.3897,N,01639.0579,E,12,12,1.1,219.6,M,0.0,M,0.0,0000*44
$GPGSA,A,3,01,02,03,04,05,06,07,08,09,10,11,12,1.2,1.1,0.5*37
